{"usage":{"notice":"Please contact VaccinateCA and let us know if you plan to rely on or publish this data. This data is provided with best-effort accuracy. If you are displaying this data, we expect you to display it responsibly. Please do not display it in a way that is easy to misread.","contact":{"partnersEmail":"partners@vaccinateca.com"}},"content":[{"Address":"12761 Schabarum Ave Plaza Level RM 1100, Irwindale, CA 91706","Affiliation":"Kaiser Pharmacy","County":"Los Angeles County","Has Report":0,"Latest report yes?":0,"Latitude":34.081292,"Location Type":"Pharmacy","Longitude":-117.996576,"Name":"Kaiser Permanente Pharmacy #568"},{"Address":"1411 KETTNER BOULEVARD, SAN DIEGO, CA 92101","Affiliation":"Rite-Aid","Availability Info":["No: no vaccine inventory"],"County":"San Diego County","Has Report":1,"Latest report":"2021-02-10T05:35:36.000Z","Latest report notes":[null],"Latest report yes?":0,"Latitude":32.719981,"Location Type":"Pharmacy","Longitude":-117.169015,"Name":"RITE AID PHARMACY 06466"},{"Address":"2939 ALTA VIEW DR SUITE L, SAN DIEGO, CA 92139","Affiliation":"The Medicine Shoppe","County":"San Diego County","Has Report":0,"Latest report yes?":0,"Latitude":32.677037,"Location Type":"Pharmacy","Longitude":-117.039177,"Name":"The Medicine Shoppe (2939 Alta View Dr Suite L)"},{"Address":"41169 Goodwin Way, Madera, CA 93636","Affiliation":"Walgreens","County":"Madera County","Has Report":0,"Latest report yes?":0,"Latitude":36.886356,"Location Type":"Pharmacy","Longitude":-119.799156,"Name":"WALGREENS #12761"},{"Address":"17911 VENTURA BLVD, ENCINO, CA 91316","Affiliation":"None / Unknown / Unimportant","Availability Info":["No: no vaccine inventory"],"County":"Los Angeles County","Has Report":1,"Latest report":"2021-02-04T06:23:25.000Z","Latest report notes":[null],"Latest report yes?":0,"Latitude":34.163796,"Location Type":"Pharmacy","Longitude":-118.522217,"Name":"ZELZAH PHARMACY"},{"Address":"1126 S Bristol St, Santa Ana, CA 92704","Affiliation":"None / Unknown / Unimportant","Appointment scheduling instructions":[null],"Availability Info":["No: no vaccine inventory"],"County":"Orange County","Has Report":1,"Latest report":"2021-01-28T02:45:54.000Z","Latest report yes?":0,"Latitude":33.73392,"Location Type":"Pharmacy","Longitude":-117.885176,"Name":"Farmacia Familiar"},{"Affiliation":"None / Unknown / Unimportant","Availability Info":["No: no vaccine inventory"],"County":"San Diego County","Has Report":1,"Latest report":"2021-01-16T17:17:33.000Z","Latest report notes":["Haven't received their vaccines order yet. Once received, go to myscripps.org. You'll be notified there when it's available for you. You'll make your appointment through that website (or download the MyScripps app)."],"Latest report yes?":0,"Latitude":33.0386292,"Location Type":"Hospital / Clinic","Longitude":-117.2846749,"Name":"Scripps Memorial Hospital – Encinitas"},{"Affiliation":"None / Unknown / Unimportant","Availability Info":["No: not open to the public"],"County":"Monterey County","Has Report":1,"Latest report":"2021-01-15T22:11:47.000Z","Latest report notes":["n/a"],"Latest report yes?":0,"Latitude":36.6591339,"Location Type":"Hospital / Clinic","Longitude":-121.6462973,"Name":"Salinas Valley Memorial Hospital – Salinas"},{"Affiliation":"None / Unknown / Unimportant","County":"Sacramento County","Has Report":0,"Latest report yes?":0,"Latitude":38.59284729999999,"Location Type":"Super Site","Longitude":-121.4376522,"Name":"Super Site - Sacramento CalExpo Fairgrounds"},{"Address":"5562 PHILADELPHIA ST. #110, CHINO, CA 91710","Affiliation":"None / Unknown / Unimportant","Appointment scheduling instructions":[null],"Availability Info":["No: no vaccine inventory"],"County":"San Bernardino County","Has Report":1,"Latest report":"2021-01-28T02:45:56.000Z","Latest report yes?":0,"Latitude":34.034887,"Location Type":"Pharmacy","Longitude":-117.683566,"Name":"CHINO PLAZA PHARMACY"},{"Address":"6041 CADILLAC AVE RM A 1ST FLR, LOS ANGELES, CA 90034","Affiliation":"None / Unknown / Unimportant","County":"Los Angeles County","Has Report":0,"Latest report yes?":0,"Latitude":34.038065,"Location Type":"Pharmacy","Longitude":-118.375937,"Name":"KAISER FDN HSP PHY 305 OUT"},{"Address":"227 W JANSS RD, THOUSAND OAKS, CA 91360","Affiliation":"The Medicine Shoppe","County":"Ventura County","Has Report":0,"Latest report yes?":0,"Latitude":34.206965,"Location Type":"Pharmacy","Longitude":-118.884329,"Name":"The Medicine Shoppe Pharmacy (227 W Janss Rd)"},{"Address":"901 Silver Spur Rd., Rolling Hills Estates CA, 90274","Affiliation":"CVS","Availability Info":["No: no vaccine inventory"],"County":"Los Angeles County","Has Report":1,"Latest report":"2021-02-10T05:35:53.000Z","Latest report notes":[null],"Latest report yes?":0,"Latitude":33.7692,"Location Type":"Pharmacy","Longitude":-118.3665,"Name":"CVS Pharmacy® \u0026 Drug Store at 901 Silver Spur Rd. Rolling Hills Estates, CA 90274"},{"Address":"1810 FREEDOM BLVD, Freedom, CA 95019","Affiliation":"Walgreens","County":"Santa Cruz County","Has Report":0,"Latest report yes?":0,"Latitude":36.934951,"Location Type":"Pharmacy","Longitude":-121.77202,"Name":"WALGREENS #2810"},{"Address":"680 SOUTH STATE STREET, UKIAH, CA 95482","Affiliation":"Rite-Aid","Availability Info":["No: no vaccine inventory"],"County":"Mendocino County","Has Report":1,"Latest report":"2021-02-09T07:35:24.000Z","Latest report notes":[null],"Latest report yes?":0,"Latitude":39.156382,"Location Type":"Pharmacy","Longitude":-123.209604,"Name":"RITE AID PHARMACY 06033"},{"Address":"26001 Briggs Road, Menifee, CA 92585","Affiliation":"None / Unknown / Unimportant","Availability Info":["Yes: vaccinating 80+"],"County":"Riverside County","Has Report":1,"Latest report":"2021-02-05T06:39:59.000Z","Latest report notes":["Vaccinating seniors 65+. Appointments can be made here: https://www.rivcoph.org/COVID-19-Vaccine-with-Registration"],"Latest report yes?":1,"Latitude":37.9706308,"Location Type":"Super Site","Longitude":-121.7191977,"Name":"Heritage High Schoool"},{"Address":"3900 E PACIFIC COAST HWY, LONG BEACH, CA 90804","Affiliation":"Kaiser Pharmacy","Appointment scheduling instructions":[null],"Availability Info":["No: no vaccine inventory"],"County":"Los Angeles County","Has Report":1,"Latest report":"2021-02-02T21:40:20.000Z","Latest report notes":["Feb 01- This site does not provide the vaccine."],"Latest report yes?":0,"Latitude":33.789347,"Location Type":"Pharmacy","Longitude":-118.146324,"Name":"KAISER PERMANENTE PHARMACY #113"},{"Address":"515 S State Highway 49, Jackson CA, 95642","Affiliation":"CVS","Availability Info":["No: no vaccine inventory"],"County":"Amador County","Has Report":1,"Latest report":"2021-02-09T07:35:27.000Z","Latest report notes":[null],"Latest report yes?":0,"Latitude":38.3437,"Location Type":"Pharmacy","Longitude":-120.7702,"Name":"CVS Pharmacy® \u0026 Drug Store at 515 S State Highway 49 Jackson, CA 95642"},{"Address":"2600 MOWRY AVE, FREMONT, CA 94538","Affiliation":"Walgreens","County":"Alameda County","Has Report":0,"Latest report yes?":0,"Latitude":37.555488,"Location Type":"Pharmacy","Longitude":-121.982327,"Name":"WALGREENS #4517"},{"Address":"901 W 7TH ST, OXNARD, CA 93030","Affiliation":"None / Unknown / Unimportant","County":"Ventura County","Has Report":0,"Latest report yes?":0,"Latitude":34.195587,"Location Type":"Pharmacy","Longitude":-119.188904,"Name":"OMAC PHARMACY"},{"Address":"18546 ROSCOE BLVD STE 102, NORTHRIDGE, CA 91324","Affiliation":"None / Unknown / Unimportant","Appointment scheduling instructions":[null],"Availability Info":["No: no vaccine inventory"],"County":"Los Angeles County","Has Report":1,"Latest report":"2021-01-29T06:36:17.000Z","Latest report yes?":0,"Latitude":34.220561,"Location Type":"Pharmacy","Longitude":-118.536924,"Name":"SMP Pharmacy Solutions #4"},{"Address":"14885 Telegraph Rd, LA MIRADA, CA 90638","Affiliation":"Walgreens","County":"Los Angeles County","Has Report":0,"Latest report yes?":0,"Latitude":33.917508,"Location Type":"Pharmacy","Longitude":-118.013066,"Name":"WALGREENS #13812"},{"Address":"101 E Valencia Mesa Dr, Fullerton, CA 92835","Affiliation":"None / Unknown / Unimportant","Appointment scheduling instructions":[null],"Availability Info":["No: no vaccine inventory"],"County":"Orange County","Has Report":1,"Latest report":"2021-02-03T23:07:08.000Z","Latest report notes":["02/03 All appointments are booked until March 12th. Not scheduling presently.02/03 CVS will start taking appointments on the 9th of February"],"Latest report yes?":0,"Latitude":33.8942905,"Location Type":"Hospital / Clinic","Longitude":-117.927407,"Name":"St. Jude Medical Center – Fullerton"},{"Address":"13768 Roswell Ave Ste 111, Chino, CA 91710","Affiliation":"None / Unknown / Unimportant","Appointment scheduling instructions":[null],"Availability Info":["No: no vaccine inventory"],"County":"San Bernardino County","Has Report":1,"Latest report":"2021-01-28T02:46:15.000Z","Latest report yes?":0,"Latitude":34.004057,"Location Type":"Pharmacy","Longitude":-117.723375,"Name":"Grandview Pharmacy"},{"Address":"2900 STOCKTON BLVD, SACRAMENTO, CA 95817","Affiliation":"Walgreens","County":"Sacramento County","Has Report":0,"Latest report yes?":0,"Latitude":38.547881,"Location Type":"Pharmacy","Longitude":-121.454937,"Name":"WALGREENS #5374"},{"Address":"2400 W COMMONWEALTH AVE, ALHAMBRA, CA 91803","Affiliation":"Sav-on Pharmacy","Appointment scheduling instructions":[null],"Availability Info":["No: no vaccine inventory"],"County":"Los Angeles County","Has Report":1,"Latest report":"2021-02-07T19:30:44.000Z","Latest report notes":["Feb 07 ran out of it, they are expecting their next shipment any day now. "],"Latest report yes?":0,"Latitude":34.08694,"Location Type":"Pharmacy","Longitude":-118.149958,"Name":"SAVON PHARMACY #2543"},{"Address":"8704 SEPULVEDA BLVD, NORTH HILLS, CA 91343","Affiliation":"None / Unknown / Unimportant","Availability Info":["No: no vaccine inventory"],"County":"Los Angeles County","Has Report":1,"Latest report":"2021-02-04T06:23:07.000Z","Latest report notes":[null],"Latest report yes?":0,"Latitude":34.228396,"Location Type":"Pharmacy","Longitude":-118.467509,"Name":"Plaza West Pharmacy (8704 Sepulveda Blvd)"},{"Address":"7250 Carson Blvd, LONG BEACH, CA 90808","Affiliation":"Walmart","Appointment scheduling instructions":[null],"Availability Info":["No: no vaccine inventory"],"County":"Los Angeles County","Has Report":1,"Latest report":"2021-01-31T01:01:44.000Z","Latest report notes":["No inventory, asked to go to county website for vaccine info."],"Latest report yes?":0,"Latitude":33.829541,"Location Type":"Pharmacy","Longitude":-118.090738,"Name":"WALMART PHARMACY 10-3477"},{"Address":"9024 Sniktaw Ln, Fort Jones, CA 96032","Affiliation":"None / Unknown / Unimportant","Appointment scheduling instructions":[null],"Availability Info":["Yes: vaccinating 65+"],"County":"Siskiyou County","Has Report":1,"Latest report":"2021-02-04T20:00:53.000Z","Latest report notes":["02/04 Presently ony vaccinating patients 65+ of record. If you're a patient of record you can call to get an appointment for a vaccine."],"Latest report yes?":1,"Latitude":41.59943683310138,"Location Type":"Hospital / Clinic","Longitude":-122.97608441986996,"Name":"ANAV Tribal Health Clinic"},{"Address":"13321 E SOUTH STREET, CERRITOS, CA 90703","Affiliation":"Ralph's Pharmacy","Appointment scheduling instructions":[null],"Availability Info":["No: no vaccine inventory"],"County":"Los Angeles County","Has Report":1,"Latest report":"2021-01-29T17:25:06.000Z","Latest report notes":[null],"Latest report yes?":0,"Latitude":33.86009,"Location Type":"Pharmacy","Longitude":-118.047601,"Name":"Ralphs Pharmacy (13321 E South Street)"},{"Address":"240 SHOTWELL ST, SAN FRANCISCO, CA 94110","Affiliation":"None / Unknown / Unimportant","Appointment scheduling instructions":[null],"Availability Info":["No: no vaccine inventory"],"County":"San Francisco","Has Report":1,"Latest report":"2021-01-28T02:45:54.000Z","Latest report yes?":0,"Latitude":37.764745,"Location Type":"Pharmacy","Longitude":-122.416562,"Name":"MISSION NEIGHBORHOOD HEALTH CENTER PHARMACY"},{"Address":"9802 Stockdale Hwy, Suite 103, Bakersfield, CA 93311","Affiliation":"None / Unknown / Unimportant","Availability Info":["No: will never be a vaccination site"],"County":"Kern County","Has Report":1,"Latest report":"2021-02-04T06:22:42.000Z","Latest report notes":[null],"Latest report yes?":0,"Latitude":35.35486,"Location Type":"Pharmacy","Longitude":-119.111441,"Name":"Southwest Pediatrics Express Pharmacy #3"},{"Address":"1100 North Palm Canyon Drive STE 204, Palm Springs, CA 92262","Affiliation":"Kaiser Pharmacy","County":"Riverside County","Has Report":0,"Latest report yes?":0,"Latitude":33.837812,"Location Type":"Pharmacy","Longitude":-116.546171,"Name":"KAISER PERMANENTE PHARMACY #869"},{"Address":"4650 PALM AVE, SAN DIEGO, CA 92154","Affiliation":"Kaiser Pharmacy","County":"San Diego County","Has Report":0,"Latest report yes?":0,"Latitude":32.585082,"Location Type":"Pharmacy","Longitude":-117.033571,"Name":"KAISER PERMANENTE PHARMACY NO 216"},{"Address":"101 DRUMMOND AVE, RIDGECREST, CA 93555","Affiliation":"Walgreens","County":"Kern County","Has Report":0,"Latest report yes?":0,"Latitude":35.637188,"Location Type":"Pharmacy","Longitude":-117.672061,"Name":"WALGREENS #9030"},{"Affiliation":"None / Unknown / Unimportant","Availability Info":["No: not open to the public"],"County":"Trinity County","Has Report":1,"Latest report":"2021-01-15T17:46:52.000Z","Latest report notes":["Directed to family physician or the health department \n"],"Latest report yes?":0,"Latitude":40.73807279999999,"Location Type":"Hospital / Clinic","Longitude":-122.9395503,"Name":"Mountain Community Medical Services – Weaverville"},{"Address":"14427 Chase St # 101, Panorama City, CA 91402","Affiliation":"None / Unknown / Unimportant","Availability Info":["No: no vaccine inventory"],"County":"Los Angeles County","Has Report":1,"Latest report":"2021-02-04T06:23:21.000Z","Latest report notes":[null],"Latest report yes?":0,"Latitude":34.224908,"Location Type":"Pharmacy","Longitude":-118.447818,"Name":"CHASE PHARMACY"},{"Address":"1159 EAST LOS ANGELES AVENUE MOUNTAIN GATE PLAZA, SIMI VALLEY, CA 93065","Affiliation":"Rite-Aid","Availability Info":["No: no vaccine inventory"],"County":"Ventura County","Has Report":1,"Latest report":"2021-02-09T07:35:21.000Z","Latest report notes":[null],"Latest report yes?":0,"Latitude":34.272569,"Location Type":"Pharmacy","Longitude":-118.777656,"Name":"RITE AID PHARMACY 05787"},{"Address":"69 EAST MAIN STREET, ALHAMBRA, CA 91801","Affiliation":"Rite-Aid","Appointment scheduling instructions":[null],"Availability Info":["No: no vaccine inventory"],"County":"Los Angeles County","Has Report":1,"Latest report":"2021-01-30T21:13:43.000Z","Latest report yes?":0,"Latitude":34.095961,"Location Type":"Pharmacy","Longitude":-118.125932,"Name":"RITE AID PHARMACY 05612"},{"Address":"199 NORTH FAIRVIEW AVENUE FAIRVIEW SHOPPING CENTER, GOLETA, CA 93117","Affiliation":"Rite-Aid","Availability Info":["No: no vaccine inventory"],"County":"Santa Barbara County","Has Report":1,"Latest report":"2021-02-10T05:35:50.000Z","Latest report notes":[null],"Latest report yes?":0,"Latitude":34.44285,"Location Type":"Pharmacy","Longitude":-119.830816,"Name":"RITE AID PHARMACY 05791"},{"Address":"3150 FOSTORIA WAY, DANVILLE, CA 94526","Affiliation":"Costco Pharmacy","Availability Info":["No: no vaccine inventory"],"County":"Contra Costa County","Has Report":1,"Latest report":"2021-02-10T05:35:19.000Z","Latest report notes":[null],"Latest report yes?":0,"Latitude":37.782813,"Location Type":"Pharmacy","Longitude":-121.973346,"Name":"COSTCO PHARMACY #21"},{"Affiliation":"None / Unknown / Unimportant","Availability Info":["No: not open to the public"],"County":"Los Angeles County","Has Report":1,"Latest report":"2021-01-14T17:55:05.000Z","Latest report notes":["Press 0 but not too soon"],"Latest report yes?":0,"Latitude":34.1602807,"Location Type":"Hospital / Clinic","Longitude":-118.4495134,"Name":"Sherman Oaks Hospital"},{"Address":"40500 MURRIETA HOT SPRINGS RD, MURRIETA, CA 92563","Affiliation":"Sam's Pharmacy","County":"Riverside County","Has Report":0,"Latest report yes?":0,"Latitude":33.553106,"Location Type":"Pharmacy","Longitude":-117.177706,"Name":"SAMS PHARMACY 10-4822"},{"Address":"2995 SAN PABLO AVE, BERKELEY, CA 94702","Affiliation":"Walgreens","County":"Alameda County","Has Report":0,"Latest report yes?":0,"Latitude":37.852649,"Location Type":"Pharmacy","Longitude":-122.286477,"Name":"WALGREENS #2609"},{"Address":"595 W 7TH ST STE 207, SAN PEDRO, CA 90731","Affiliation":"None / Unknown / Unimportant","Availability Info":["No: will never be a vaccination site"],"County":"Los Angeles County","Has Report":1,"Latest report":"2021-02-04T06:23:03.000Z","Latest report notes":[null],"Latest report yes?":0,"Latitude":33.73766,"Location Type":"Pharmacy","Longitude":-118.28976,"Name":"SEASIDE MARINE INT'L DRUG CO INC"},{"Address":"27994 Bradley Rd Ste H, Menifee, CA 92586","Affiliation":"None / Unknown / Unimportant","Appointment scheduling instructions":[null],"Availability Info":["No: no vaccine inventory"],"County":"Riverside County","Has Report":1,"Latest report":"2021-01-28T02:21:11.000Z","Latest report yes?":0,"Latitude":33.716128,"Location Type":"Pharmacy","Longitude":-117.190458,"Name":"Lotus Pharmacy (27994 Bradley Rd Ste H)"},{"Affiliation":"None / Unknown / Unimportant","Appointment scheduling instructions":[null],"Availability Info":["Yes: vaccinating 75+"],"County":"Santa Barbara County","Has Report":1,"Latest report":"2021-01-30T23:33:40.000Z","Latest report notes":["1/30: Appointments for Feb 3 and Feb 5 are available on the registration website: https://www.signupgenius.com/go/10c0d44ada92ea3f8ce9-mrmc3"],"Latest report yes?":1,"Latitude":34.951847350705755,"Location Type":"Hospital / Clinic","Longitude":-120.41247286136618,"Name":"Marian Regional Medical Center"},{"Address":"11900 Balboa Blvd, Granada Hills CA, 91344","Affiliation":"CVS","Availability Info":["No: no vaccine inventory"],"County":"Los Angeles County","Has Report":1,"Latest report":"2021-02-09T07:35:48.000Z","Latest report notes":[null],"Latest report yes?":0,"Latitude":34.2865,"Location Type":"Pharmacy","Longitude":-118.5011,"Name":"CVS Pharmacy® \u0026 Drug Store at 11900 Balboa Blvd Granada Hills, CA 91344"},{"Address":"4226 WOODRUFF AVE, LAKEWOOD, CA 90713","Affiliation":"Von's Pharmacy","Appointment scheduling instructions":[null],"Availability Info":["No: no vaccine inventory"],"County":"Los Angeles County","Has Report":1,"Latest report":"2021-01-29T03:09:44.000Z","Latest report notes":[null],"Latest report yes?":0,"Latitude":33.835175,"Location Type":"Pharmacy","Longitude":-118.115432,"Name":"VONS PHARMACY #1638"},{"Address":"6253 FOOTHILL BLVD, Tujunga, CA 91042","Affiliation":"None / Unknown / Unimportant","Availability Info":["No: will never be a vaccination site"],"County":"Los Angeles County","Has Report":1,"Latest report":"2021-02-04T06:22:46.000Z","Latest report notes":[null],"Latest report yes?":0,"Latitude":34.241499,"Location Type":"Pharmacy","Longitude":-118.267535,"Name":"Foothill Remedy Drugs"},{"Address":"4920 La Sierra Avenue, RIVERSIDE, CA 92505","Affiliation":"Rite-Aid","Availability Info":["No: no vaccine inventory"],"County":"Riverside County","Has Report":1,"Latest report":"2021-02-10T05:35:13.000Z","Latest report notes":[null],"Latest report yes?":0,"Latitude":33.919491,"Location Type":"Pharmacy","Longitude":-117.489263,"Name":"RITE AID PHARMACY 05714"},{"Address":"2490 HONOLULU AVE SUITE 110, MONTROSE, CA 91020","Affiliation":"None / Unknown / Unimportant","Availability Info":["No: no vaccine inventory"],"County":"Los Angeles County","Has Report":1,"Latest report":"2021-02-04T06:22:59.000Z","Latest report notes":[null],"Latest report yes?":0,"Latitude":34.206629,"Location Type":"Pharmacy","Longitude":-118.231657,"Name":"UNI-MED PHARMACY"},{"Address":"1023 E. Florida Avenue\nHemet, CA 92543","Affiliation":"Clinica de Salud del Valle de Salinas","Appointment scheduling instructions":[null],"Availability Info":["Yes: appointment calendar currently full","Yes: vaccinating 65+","Yes: appointment required"],"County":"Riverside County","Has Report":1,"Latest report":"2021-02-08T19:00:56.000Z","Latest report notes":["Wait list is currently 2 months out. "],"Latest report yes?":1,"Latitude":33.747352,"Location Type":"Hospital / Clinic","Longitude":-116.9610962,"Name":"Hemet Medical and Dental Center"},{"Address":"15990 BROOKHURST ST, Fountain Valley, CA 92708","Affiliation":"Walgreens","County":"Orange County","Has Report":0,"Latest report yes?":0,"Latitude":33.730499,"Location Type":"Pharmacy","Longitude":-117.95442,"Name":"WALGREENS  #9534"},{"Address":"30740 Russell Ranch Rd, Westlake Village CA, 91362","Affiliation":"CVS","Availability Info":["No: no vaccine inventory"],"County":"Ventura County","Has Report":1,"Latest report":"2021-02-10T05:35:47.000Z","Latest report notes":[null],"Latest report yes?":0,"Latitude":34.1475,"Location Type":"Pharmacy","Longitude":-118.794,"Name":"CVS Pharmacy® at 30740 Russell Ranch Rd Westlake Village, CA 91362"},{"Address":"46350 Arabia Street, Indio, CA 92504","Affiliation":"None / Unknown / Unimportant","Availability Info":["Yes: vaccinating 80+"],"County":"Riverside County","Has Report":1,"Latest report":"2021-02-05T06:43:17.000Z","Latest report notes":["Vaccinating seniors 65+. Appointments can be made here: https://www.rivcoph.org/COVID-19-Vaccine-with-Registration"],"Latest report yes?":1,"Latitude":33.713392,"Location Type":"Super Site","Longitude":-116.2245116,"Name":"Indio Fairgrounds - Fullenwider Building"},{"Affiliation":"Sutter","Appointment scheduling instructions":[null],"Availability Info":["No: no vaccine inventory"],"County":"San Mateo County","Has Report":1,"Latest report":"2021-01-30T00:18:58.000Z","Latest report notes":["Jan 29: not offering vaccine at this site; current Sutter Health patients can go to the website to fin other locations with vaccine https://www.sutterhealth.org/for-patients/health-alerts/covid-19-vaccine"],"Latest report yes?":0,"Latitude":37.5921025,"Location Type":"Hospital / Clinic","Longitude":-122.3833422,"Name":"Mills-Peninsula Medical Center – Burlingame (Sutter Health)"},{"Address":"74590 HWY 111, PALM DESERT, CA 92260","Affiliation":"Sav-on Pharmacy","Availability Info":["No: no vaccine inventory"],"County":"Riverside County","Has Report":1,"Latest report":"2021-01-27T18:37:48.000Z","Latest report notes":["Appointments when available will be at https://www.rivcoph.org/COVID-19-Vaccine"],"Latest report yes?":0,"Latitude":33.722768,"Location Type":"Pharmacy","Longitude":-116.363836,"Name":"SAVON PHARMACY #3559"},{"Address":"1701 AIRLINE HIGHWAY HERITAGE PLAZA SHOPPING CENTER, HOLLISTER, CA 95023","Affiliation":"Rite-Aid","Availability Info":["No: no vaccine inventory"],"County":"San Benito County","Has Report":1,"Latest report":"2021-02-09T07:35:30.000Z","Latest report notes":[null],"Latest report yes?":0,"Latitude":36.838528,"Location Type":"Pharmacy","Longitude":-121.389248,"Name":"RITE AID PHARMACY 05971"},{"Address":"202 W Willow Ave Ste 102, Visalia, CA 93291","Affiliation":"None / Unknown / Unimportant","County":"Tulare County","Has Report":0,"Latest report yes?":0,"Latitude":36.328518,"Location Type":"Pharmacy","Longitude":-119.293768,"Name":"Kaweah Delta Pharmacy"},{"Address":"2500 E IMPERIAL HWY, BREA, CA 92821","Affiliation":"Sav-on Pharmacy","Availability Info":["No: no vaccine inventory"],"County":"Orange County","Has Report":1,"Latest report":"2021-02-09T07:35:27.000Z","Latest report notes":[null],"Latest report yes?":0,"Latitude":33.909638,"Location Type":"Pharmacy","Longitude":-117.864404,"Name":"SAV-ON PHARMACY #2141"},{"Address":"999 San Bernardino Road, Upland CA 91786","Affiliation":"None / Unknown / Unimportant","County":"San Bernardino County","Has Report":0,"Latest report yes?":0,"Latitude":34.1021803,"Location Type":"Hospital / Clinic","Longitude":-117.6366085,"Name":"San Antonio Regional Hospital"},{"Address":"239 S Juniper St, Escondido, CA 92025","Affiliation":"None / Unknown / Unimportant","Appointment scheduling instructions":[null],"Availability Info":["No: no vaccine inventory"],"County":"San Diego County","Has Report":1,"Latest report":"2021-01-28T02:46:26.000Z","Latest report yes?":0,"Latitude":33.121368,"Location Type":"Pharmacy","Longitude":-117.077926,"Name":"Trillium Pharmacy"},{"Address":"6411 Sepulveda Blvd Ste 2A, Van Nuys, CA 91411","Affiliation":"None / Unknown / Unimportant","Availability Info":["No: will never be a vaccination site"],"County":"Los Angeles County","Has Report":1,"Latest report":"2021-02-04T06:22:54.000Z","Latest report notes":[null],"Latest report yes?":0,"Latitude":34.187286,"Location Type":"Pharmacy","Longitude":-118.466467,"Name":"WINDSOR PHARMACY"},{"Affiliation":"None / Unknown / Unimportant","Availability Info":["No: only vaccinating health care workers"],"County":"Alameda County","Has Report":1,"Latest report":"2021-01-14T16:01:43.000Z","Latest report notes":["At this time, employees only. Not sure when will expand to age 65+ folks. Recommended calling 211."],"Latest report yes?":0,"Latitude":37.7628876,"Location Type":"Hospital / Clinic","Longitude":-122.2541779,"Name":"Alameda Hospital – Alameda (Alameda Health System)"},{"Address":"1080 PLEASANT GROVE BLVD, ROSEVILLE, CA 95678","Affiliation":"Safeway","Appointment scheduling instructions":["Placer County website"],"Availability Info":["Yes: appointment required"],"County":"Placer County","Has Report":1,"Latest report":"2021-02-03T20:12:02.000Z","Latest report notes":["02/03 You need to make an appointment through the Placer County website. There are currently 500 on the list."],"Latest report yes?":1,"Latitude":38.777243,"Location Type":"Pharmacy","Longitude":-121.291646,"Name":"SAFEWAY PHARMACY #1890"},{"Address":"5328 W CYPRESS AVE, VISALIA, CA 93277","Affiliation":"Walgreens","County":"Tulare County","Has Report":0,"Latest report yes?":0,"Latitude":36.324886,"Location Type":"Pharmacy","Longitude":-119.350363,"Name":"WALGREENS #6683"},{"Address":"1842 FORT JONES STREET, YREKA, CA 96097","Affiliation":"Raley's Pharmacy","County":"Siskiyou County","Has Report":0,"Latest report yes?":0,"Latitude":41.700464,"Location Type":"Pharmacy","Longitude":-122.646462,"Name":"RALEY'S PHARMACY #247"},{"Address":"1513 S Grand Ave # 100, Los Angeles, CA 90015","Affiliation":"None / Unknown / Unimportant","Appointment scheduling instructions":[null],"Availability Info":["No: no vaccine inventory"],"County":"Los Angeles County","Has Report":1,"Latest report":"2021-01-30T21:14:03.000Z","Latest report yes?":0,"Latitude":34.03622,"Location Type":"Pharmacy","Longitude":-118.26632,"Name":"GRAND SPECIALTY PHARMACY"},{"Address":"1444 SHATTUCK PLACE, BERKELEY, CA 94709","Affiliation":"Safeway","Appointment scheduling instructions":["https://www.cityofberkeley.info/covax/"],"Availability Info":["Yes: vaccinating 75+","Yes: appointment required"],"County":"Alameda County","Has Report":1,"Latest report":"2021-02-07T19:33:43.000Z","Latest report notes":["Feb 07 "],"Latest report yes?":1,"Latitude":37.881153,"Location Type":"Pharmacy","Longitude":-122.269933,"Name":"SAFEWAY PHARMACY  #0691"},{"Address":"3925 OLD REDWOOD HWY, SANTA ROSA, CA 95403","Affiliation":"Kaiser Pharmacy","County":"Sonoma County","Has Report":0,"Latest report yes?":0,"Latitude":38.482838,"Location Type":"Pharmacy","Longitude":-122.73578,"Name":"KAISER PERMANENTE PHARMACY #587"},{"Address":"3120 S HACIENDA BLVD STE 105, HACIENDA HEIGHTS, CA 91745","Affiliation":"None / Unknown / Unimportant","Availability Info":["No: will never be a vaccination site"],"County":"Los Angeles County","Has Report":1,"Latest report":"2021-02-04T06:22:46.000Z","Latest report notes":[null],"Latest report yes?":0,"Latitude":33.980935,"Location Type":"Pharmacy","Longitude":-117.972506,"Name":"HACIENDA PHARMACY"},{"Address":"1234 S GARFIELD AVE STE 102, ALHAMBRA, CA 91801","Affiliation":"None / Unknown / Unimportant","County":"Los Angeles County","Has Report":0,"Latest report yes?":0,"Latitude":34.080342,"Location Type":"Pharmacy","Longitude":-118.122862,"Name":"E AND J PHARMACY INC"},{"Address":"1840 SIERRA GARDENS DRIVE, ROSEVILLE, CA 95661","Affiliation":"Kaiser Pharmacy","County":"Placer County","Has Report":0,"Latest report yes?":0,"Latitude":38.748152,"Location Type":"Pharmacy","Longitude":-121.260994,"Name":"KAISER SIERRA GARDENS PHARMACY 593"},{"Address":"2431 3RD ST, HUGHSON, CA 95326","Affiliation":"None / Unknown / Unimportant","Appointment scheduling instructions":[null],"Availability Info":["No: no vaccine inventory"],"County":"Stanislaus County","Has Report":1,"Latest report":"2021-01-28T02:21:02.000Z","Latest report yes?":0,"Latitude":37.596033,"Location Type":"Pharmacy","Longitude":-120.866915,"Name":"Carranza Pharmacy"},{"Address":"9700 Panama Lane, Bakersfield, CA 93311","Affiliation":"Rite-Aid","Availability Info":["No: no vaccine inventory"],"County":"Kern County","Has Report":1,"Latest report":"2021-02-10T05:35:44.000Z","Latest report notes":[null],"Latest report yes?":0,"Latitude":35.296488,"Location Type":"Pharmacy","Longitude":-119.110626,"Name":"Rite Aid Pharmacy 06716"},{"Address":"12508 RIVERSIDE DR, NORTH HOLLYWOOD, CA 91607","Affiliation":"None / Unknown / Unimportant","Availability Info":["No: will never be a vaccination site"],"County":"Los Angeles County","Has Report":1,"Latest report":"2021-02-04T06:22:42.000Z","Latest report notes":[null],"Latest report yes?":0,"Latitude":34.157468,"Location Type":"Pharmacy","Longitude":-118.405574,"Name":"RIVERSIDE DISCOUNT DRUGS"},{"Address":"517 Main St Ste B, Livingston, CA 95334","Affiliation":"None / Unknown / Unimportant","County":"Merced County","Has Report":0,"Latest report yes?":0,"Latitude":37.385534,"Location Type":"Pharmacy","Longitude":-120.722938,"Name":"COMMUNITY HEALTH CENTERS OF AMERICA"},{"Affiliation":"None / Unknown / Unimportant","Appointment scheduling instructions":[null],"Availability Info":["No: no vaccine inventory"],"County":"Modoc County","Has Report":1,"Latest report":"2021-02-05T00:38:50.000Z","Latest report notes":["Feb 04 - The hospital switch board said this location was not vaccinating and to check with the county for appointments elsewhere in the area. https://modochealthservices.org/corona-virus"],"Latest report yes?":0,"Latitude":41.4938123,"Location Type":"Hospital / Clinic","Longitude":-120.5536086,"Name":"Modoc Medical Center"},{"Address":"1540 W FOOTHILL BLVD, UPLAND, CA 91786","Affiliation":"Walmart","County":"San Bernardino County","Has Report":0,"Latest report yes?":0,"Latitude":34.105872,"Location Type":"Pharmacy","Longitude":-117.679017,"Name":"WALMART PHARMACY 10-1992"},{"Address":"1220 BROADWAY STREET, PLACERVILLE, CA 95667","Affiliation":"Rite-Aid","Availability Info":["No: no vaccine inventory"],"County":"El Dorado County","Has Report":1,"Latest report":"2021-02-10T05:35:29.000Z","Latest report notes":[null],"Latest report yes?":0,"Latitude":38.731236,"Location Type":"Pharmacy","Longitude":-120.78804,"Name":"RITE AID PHARMACY 06057"},{"Address":"615 BROADWAY, MILLBRAE, CA 94030","Affiliation":"Walgreens","County":"San Mateo County","Has Report":0,"Latest report yes?":0,"Latitude":37.603484,"Location Type":"Pharmacy","Longitude":-122.395962,"Name":"WALGREENS #625"},{"Address":"2001 The Alameda, San Jose, CA 95126","Affiliation":"None / Unknown / Unimportant","County":"Santa Clara County","Has Report":0,"Latest report yes?":0,"Latitude":37.3424312,"Location Type":"Hospital / Clinic","Longitude":-121.9272669,"Name":"BACH Momentum Clinic, The Alameda (Bay Area Community Health)"},{"Address":"4605 MORENA BLVD, SAN DIEGO, CA 92117","Affiliation":"Costco Pharmacy","County":"San Diego County","Has Report":0,"Latest report yes?":0,"Latitude":32.822348,"Location Type":"Pharmacy","Longitude":-117.225398,"Name":"COSTCO PHARMACY #401"},{"Address":"2633 ATLANTIC AVE, LONG BEACH, CA 90806","Affiliation":"None / Unknown / Unimportant","County":"Los Angeles County","Has Report":0,"Latest report yes?":0,"Latitude":33.805087,"Location Type":"Pharmacy","Longitude":-118.185335,"Name":"AVIVA PHARMACY"},{"Address":"211 EAST 17TH STREET, COSTA MESA, CA 92627","Affiliation":"Rite-Aid","Availability Info":["No: no vaccine inventory"],"County":"Orange County","Has Report":1,"Latest report":"2021-02-10T05:35:50.000Z","Latest report notes":[null],"Latest report yes?":0,"Latitude":33.634565,"Location Type":"Pharmacy","Longitude":-117.918824,"Name":"RITE AID PHARMACY 05733"},{"Address":"1910 N Campus Ave, Upland, CA 91784","Affiliation":"Sav-on Pharmacy","Availability Info":["No: no vaccine inventory"],"County":"San Bernardino County","Has Report":1,"Latest report":"2021-02-10T05:35:22.000Z","Latest report notes":[null],"Latest report yes?":0,"Latitude":34.131298,"Location Type":"Pharmacy","Longitude":-117.63749,"Name":"SAV-ON PHARMACY #0599"},{"Address":"415 W ROUTE 66, GLENDORA, CA 91740","Affiliation":"None / Unknown / Unimportant","Availability Info":["No: incorrect contact information"],"County":"Los Angeles County","Has Report":1,"Latest report":"2021-02-04T06:22:59.000Z","Latest report notes":[null],"Latest report yes?":0,"Latitude":34.129059,"Location Type":"Pharmacy","Longitude":-117.869935,"Name":"FOOTHILL MEDICAL PLAZA PHARMACY INC"},{"Address":"16017 VALLEY BLVD, CITY OF INDUSTRY, CA 91744","Affiliation":"None / Unknown / Unimportant","Availability Info":["No: will never be a vaccination site"],"County":"Los Angeles County","Has Report":1,"Latest report":"2021-02-04T06:23:44.000Z","Latest report notes":[null],"Latest report yes?":0,"Latitude":34.016416,"Location Type":"Pharmacy","Longitude":-117.951848,"Name":"SUPERCARE"},{"Address":"12471 Limonite Ave, Eastvale CA, 91752","Affiliation":"CVS","Availability Info":["No: no vaccine inventory"],"County":"Riverside County","Has Report":1,"Latest report":"2021-02-10T05:35:13.000Z","Latest report notes":[null],"Latest report yes?":0,"Latitude":33.9784,"Location Type":"Pharmacy","Longitude":-117.5543,"Name":"CVS Pharmacy® at 12471 Limonite Ave Eastvale, CA 91752"},{"Address":"42351 3rd Street\nKnights Landing, CA 95645\nUnited States","Affiliation":"County","Appointment scheduling instructions":["Appointments via https://www.eventbrite.com/e/covid19-vaccination-clinic-for-75-population-tickets-138709817799"],"Availability Info":["Yes: appointment required","Yes: vaccinating 75+","Yes: restricted to county residents","Yes: vaccinating 65+"],"County":"Yolo County","Has Report":1,"Latest report":"2021-02-01T12:17:04.000Z","Latest report notes":["As per the County, this is an appointment only Drive-Thru Vaccination Clinic to be held on Thur Feb 4th.\n\nThis is a first dose COVID vaccine drive-thru clinic is for Yolo County residents who are:\n\n• 65 or older and\n• A resident of Yolo County or\n• A health care worker who works in Yolo County but has not yet been vaccinated\n\n"],"Latest report yes?":1,"Latitude":38.80041,"Location Type":"Super Site","Longitude":-121.71792,"Name":"Knights Landing Branch Library"},{"Address":"955 STONY POINT ROAD, Santa Rosa, CA 95407","Affiliation":"Rite-Aid","Availability Info":["No: no vaccine inventory"],"County":"Sonoma County","Has Report":1,"Latest report":"2021-02-10T05:35:19.000Z","Latest report notes":[null],"Latest report yes?":0,"Latitude":38.426354,"Location Type":"Pharmacy","Longitude":-122.74191,"Name":"RITE AID PHARMACY 04212"},{"Address":"1555 S. Garey Ave.\nPomona, CA 91766","Affiliation":"None / Unknown / Unimportant","County":"Los Angeles County","Has Report":0,"Latest report yes?":0,"Latitude":34.04345183312513,"Location Type":"Hospital / Clinic","Longitude":-117.75048291735857,"Name":"East Valley Community Health Center- Pomona"},{"Address":"1324 San Carlos Ave, San Carlos CA, 94070","Affiliation":"CVS","County":"San Mateo County","Has Report":0,"Latest report yes?":0,"Latitude":37.5058,"Location Type":"Pharmacy","Longitude":-122.2629,"Name":"CVS Pharmacy® \u0026 Drug Store at 1324 San Carlos Ave San Carlos, CA 94070"},{"Address":"941 Alamo Dr, Vacaville, CA 95687","Affiliation":"Walmart","Appointment scheduling instructions":[null],"Availability Info":["No: no vaccine inventory"],"County":"Solano County","Has Report":1,"Latest report":"2021-01-30T21:13:48.000Z","Latest report yes?":0,"Latitude":38.344528,"Location Type":"Pharmacy","Longitude":-121.995767,"Name":"WalMart Pharmacy 10-5608"},{"Address":"7301 Girard Ave Ste 100, La Jolla, CA 92037","Affiliation":"None / Unknown / Unimportant","Appointment scheduling instructions":[null],"Availability Info":["No: no vaccine inventory"],"County":"San Diego County","Has Report":1,"Latest report":"2021-01-28T02:45:48.000Z","Latest report notes":["Currently applying to be eligible to distribute the vaccine."],"Latest report yes?":0,"Latitude":32.837717,"Location Type":"Pharmacy","Longitude":-117.271214,"Name":"CortexRx"},{"Address":"121 Barboza St Bldg 3, MENDOTA, CA 93640","Affiliation":"None / Unknown / Unimportant","Appointment scheduling instructions":[null],"Availability Info":["No: no vaccine inventory"],"County":"Fresno County","Has Report":1,"Latest report":"2021-01-28T00:38:47.000Z","Latest report notes":["No availability yet, but for 75+ you can call and ask to be added to a waitlist"],"Latest report yes?":0,"Latitude":36.766248,"Location Type":"Pharmacy","Longitude":-120.38342,"Name":"United Health Centers Pharmacy Mendota"},{"Address":"4207 Elverta Rd Ste 109, Antelope, CA 95843","Affiliation":"None / Unknown / Unimportant","Appointment scheduling instructions":[null],"Availability Info":["No: no vaccine inventory"],"County":"Sacramento County","Has Report":1,"Latest report":"2021-01-28T02:45:50.000Z","Latest report yes?":0,"Latitude":38.715302,"Location Type":"Pharmacy","Longitude":-121.366174,"Name":"Antelope Pharmacy"},{"Address":"745 E DUNNE AVE, MORGAN HILL, CA 95037","Affiliation":"Walgreens","County":"Santa Clara County","Has Report":0,"Latest report yes?":0,"Latitude":37.130136,"Location Type":"Pharmacy","Longitude":-121.638688,"Name":"WALGREENS #4516"},{"Address":"5230 BEACH BLVD., BUENA PARK, CA 90621","Affiliation":"None / Unknown / Unimportant","Appointment scheduling instructions":[null],"Availability Info":["No: no vaccine inventory"],"County":"Orange County","Has Report":1,"Latest report":"2021-01-28T02:46:04.000Z","Latest report yes?":0,"Latitude":33.885682,"Location Type":"Pharmacy","Longitude":-117.994291,"Name":"BEACH MEDICAL PHARMACY"},{"Address":"1340 S Beach Blvd, LA HABRA, CA 90631","Affiliation":"Walmart","Availability Info":["No: no vaccine inventory"],"County":"Orange County","Has Report":1,"Latest report":"2021-01-25T01:21:53.000Z","Latest report notes":["Orange county residents are being asked to go to othena.com for vaccination registration. This will send you an email as to status.  "],"Latest report yes?":0,"Latitude":33.914808,"Location Type":"Pharmacy","Longitude":-117.969901,"Name":"WALMART PHARMACY 10-3248"},{"Address":"73-091 COUNTRY CLUB DR STE A4, PALM DESERT, CA 92260","Affiliation":"None / Unknown / Unimportant","County":"Riverside County","Has Report":0,"Latest report yes?":0,"Latitude":33.686917,"Location Type":"Pharmacy","Longitude":-116.407511,"Name":"DesertRx Pharmacy"},{"Address":"13841 Roswell Ave Unit I, Chino, CA 91710","Affiliation":"None / Unknown / Unimportant","County":"San Bernardino County","Has Report":0,"Latest report yes?":0,"Latitude":34.001645,"Location Type":"Pharmacy","Longitude":-117.721597,"Name":"United Pharmacy Solutions"},{"Address":"395 HICKEY BLVD FL 1, DALY CITY, CA 94015","Affiliation":"Kaiser Pharmacy","County":"San Mateo County","Has Report":0,"Latest report yes?":0,"Latitude":37.662744,"Location Type":"Pharmacy","Longitude":-122.462985,"Name":"Kaiser Permanente Daly City Medical Offices"},{"Address":"9041 TRASK AVE STE B, GARDEN GROVE, CA 92844","Affiliation":"None / Unknown / Unimportant","County":"Orange County","Has Report":0,"Latest report yes?":0,"Latitude":33.766967,"Location Type":"Pharmacy","Longitude":-117.971905,"Name":"CATALINA PHARMACY"},{"Address":"3098 G ST, MERCED, CA 95340","Affiliation":"Walgreens","Appointment scheduling instructions":["Go to https://www.walgreens.com/findcare/vaccination/covid-19 - scroll down to 'get started'. \nYou will have to have a walgreens.com user account to make an appointment."],"Availability Info":["Yes: appointment required","Yes: vaccinating 65+"],"County":"Merced County","Has Report":1,"Latest report":"2021-01-29T01:53:42.000Z","Latest report notes":[null],"Latest report yes?":1,"Latitude":37.31742,"Location Type":"Pharmacy","Longitude":-120.46809,"Name":"WALGREENS #4415"},{"Address":"101 West Lake Street, Mount Shasta CA, 96067","Affiliation":"CVS","Availability Info":["No: no vaccine inventory"],"County":"Siskiyou County","Has Report":1,"Latest report":"2021-02-10T05:35:53.000Z","Latest report notes":[null],"Latest report yes?":0,"Latitude":41.3129,"Location Type":"Pharmacy","Longitude":-122.3116,"Name":"CVS Pharmacy® \u0026 Drug Store at 101 West Lake Street Mount Shasta, CA 96067"},{"Address":"2025 SOQUEL AVE, SANTA CRUZ, CA 95062","Affiliation":"None / Unknown / Unimportant","Appointment scheduling instructions":[null],"Availability Info":["No: no vaccine inventory"],"County":"Santa Cruz County","Has Report":1,"Latest report":"2021-01-28T02:45:47.000Z","Latest report yes?":0,"Latitude":36.98237,"Location Type":"Pharmacy","Longitude":-121.997717,"Name":"MEDICAL CLINIC PHARMACY"},{"Address":"309 VENTURA BLVD STE B, CAMARILLO, CA 93010","Affiliation":"Kaiser Pharmacy","County":"Ventura County","Has Report":0,"Latest report yes?":0,"Latitude":34.217592,"Location Type":"Pharmacy","Longitude":-119.074909,"Name":"KAISER PERMANENTE PHARMACY #888"},{"Address":"23206 Lyons Ave Ste 112, Newhall, CA 91321","Affiliation":"None / Unknown / Unimportant","Appointment scheduling instructions":[null],"Availability Info":["No: no vaccine inventory"],"County":"Los Angeles County","Has Report":1,"Latest report":"2021-01-30T21:13:50.000Z","Latest report yes?":0,"Latitude":34.379126,"Location Type":"Pharmacy","Longitude":-118.538323,"Name":"LYONS PHARMACY \u0026 COMPOUNDING LAB"},{"Address":"869 Newville Rd, Orland CA, 95963","Affiliation":"CVS","Availability Info":["No: no vaccine inventory"],"County":"Glenn County","Has Report":1,"Latest report":"2021-01-26T00:22:18.000Z","Latest report notes":[null],"Latest report yes?":0,"Latitude":39.7486,"Location Type":"Pharmacy","Longitude":-122.2019,"Name":"CVS Pharmacy® \u0026 Drug Store at 869 Newville Rd Orland, CA 95963"},{"Address":"166 N MOORPARK RD STE 105, THOUSAND OAKS, CA 91360","Affiliation":"None / Unknown / Unimportant","Appointment scheduling instructions":[null],"Availability Info":["No: no vaccine inventory"],"County":"Ventura County","Has Report":1,"Latest report":"2021-01-28T03:20:03.000Z","Latest report yes?":0,"Latitude":34.180453,"Location Type":"Pharmacy","Longitude":-118.875458,"Name":"ST. GEORGE PHARMACY"},{"Address":"102 N JACK TONE RD STE R, RIPON, CA 95366","Affiliation":"Walgreens","County":"San Joaquin County","Has Report":0,"Latest report yes?":0,"Latitude":37.739986,"Location Type":"Pharmacy","Longitude":-121.141622,"Name":"WALGREENS #9716"},{"Address":"13085 Central Ave Ste 2, Chino, CA 91710","Affiliation":"None / Unknown / Unimportant","Appointment scheduling instructions":[null],"Availability Info":["No: no vaccine inventory"],"County":"San Bernardino County","Has Report":1,"Latest report":"2021-01-28T02:45:59.000Z","Latest report yes?":0,"Latitude":34.015723,"Location Type":"Pharmacy","Longitude":-117.688881,"Name":"CHINOCARE PHARMACY"},{"Address":"219 N Sanborn Rd, Salinas, CA 93905","Affiliation":"Clinica de Salud del Valle de Salinas","County":"Monterey County","Has Report":0,"Latest report yes?":0,"Latitude":36.6774223,"Longitude":-121.6270174,"Name":"Clinica de Salud del Valle de Salinas, Sanboard Rd"},{"Address":"3678 Sonoma Blvd, Vallejo CA, 94590","Affiliation":"CVS","Availability Info":["No: no vaccine inventory"],"County":"Solano County","Has Report":1,"Latest report":"2021-02-10T05:35:36.000Z","Latest report notes":[null],"Latest report yes?":0,"Latitude":38.1243,"Location Type":"Pharmacy","Longitude":-122.2537,"Name":"CVS Pharmacy® \u0026 Drug Store at 3678 Sonoma Blvd Vallejo, CA 94590"},{"Address":"1750 FULTON ST, SAN FRANCISCO, CA 94117","Affiliation":"Lucky Pharmacy","Appointment scheduling instructions":[null],"Availability Info":["No: no vaccine inventory"],"County":"San Francisco","Has Report":1,"Latest report":"2021-01-28T03:19:53.000Z","Latest report yes?":0,"Latitude":37.776159,"Location Type":"Pharmacy","Longitude":-122.445779,"Name":"Lucky Pharmacy (1750 Fulton St)"},{"Address":"950 E 33rd St, Signal Hill CA, 90755","Affiliation":"CVS","Availability Info":["No: no vaccine inventory"],"County":"Los Angeles County","Has Report":1,"Latest report":"2021-02-10T05:35:47.000Z","Latest report notes":[null],"Latest report yes?":0,"Latitude":33.8166,"Location Type":"Pharmacy","Longitude":-118.1816,"Name":"CVS Pharmacy® at 950 E 33rd St Signal Hill, CA 90755"},{"Address":"400 S 2ND AVE STE 101, BARSTOW, CA 92311","Affiliation":"None / Unknown / Unimportant","Appointment scheduling instructions":[null],"Availability Info":["No: no vaccine inventory"],"County":"San Bernardino County","Has Report":1,"Latest report":"2021-01-28T03:19:57.000Z","Latest report notes":["Expect to stock vaccine in February."],"Latest report yes?":0,"Latitude":34.894786,"Location Type":"Pharmacy","Longitude":-117.026965,"Name":"THE PRESCRIPTION SHOPPE"},{"Address":"3600 Broadway Fl 1, Oakland, CA 94611","Affiliation":"Kaiser Pharmacy","County":"Alameda County","Has Report":0,"Latest report yes?":0,"Latitude":37.82341,"Location Type":"Pharmacy","Longitude":-122.25929,"Name":"Kaiser Permanente Pharmacy #105"},{"Address":"1180 S Diamond Bar Blvd, Diamond Bar, CA 91765","Affiliation":"Walmart","County":"Los Angeles County","Has Report":0,"Latest report yes?":0,"Latitude":34.001192,"Location Type":"Pharmacy","Longitude":-117.810618,"Name":"Walmart Pharmacy 10-4762"},{"Address":"230 E Valley Blvd Ste 103, San Gabriel, CA 91776","Affiliation":"None / Unknown / Unimportant","Availability Info":["No: will never be a vaccination site"],"County":"Los Angeles County","Has Report":1,"Latest report":"2021-02-04T06:23:21.000Z","Latest report notes":[null],"Latest report yes?":0,"Latitude":34.079439,"Location Type":"Pharmacy","Longitude":-118.097151,"Name":"B \u0026 A PHARMACY"},{"Address":"2355 CALIFORNIA BLVD, NAPA, CA 94559","Affiliation":"Lucky Pharmacy","Appointment scheduling instructions":[null],"Availability Info":["No: no vaccine inventory"],"County":"Napa County","Has Report":1,"Latest report":"2021-01-28T03:19:59.000Z","Latest report yes?":0,"Latitude":38.305922,"Location Type":"Pharmacy","Longitude":-122.303056,"Name":"Lucky Pharmacy (2355 California Blvd)"},{"Address":"16060 VENTURA BLVD UNIT 109, ENCINO, CA 91436","Affiliation":"None / Unknown / Unimportant","Appointment scheduling instructions":[null],"Availability Info":["No: no vaccine inventory"],"County":"Los Angeles County","Has Report":1,"Latest report":"2021-01-30T21:14:06.000Z","Latest report yes?":0,"Latitude":34.156104,"Location Type":"Pharmacy","Longitude":-118.483347,"Name":"ENCINO FAMILY PHARMACY"},{"Address":"470 N Airport Rd, WILLOWS, CA 95988","Affiliation":"Walmart","Appointment scheduling instructions":[null],"Availability Info":["No: no vaccine inventory"],"County":"Glenn County","Has Report":1,"Latest report":"2021-01-29T06:36:29.000Z","Latest report yes?":0,"Latitude":39.52564,"Location Type":"Pharmacy","Longitude":-122.218101,"Name":"WALMART PHARMACY 10-2053"},{"Address":"1820 W Lincoln Ave, Anaheim, CA 92801","Affiliation":"None / Unknown / Unimportant","County":"Orange County","Has Report":0,"Latest report yes?":0,"Latitude":33.832033,"Location Type":"Pharmacy","Longitude":-117.946711,"Name":"AltaMed Pharmacy 5"},{"Affiliation":"None / Unknown / Unimportant","Availability Info":["No: not open to the public"],"County":"Santa Barbara County","Has Report":1,"Latest report":"2021-01-14T17:51:40.000Z","Latest report notes":["Hoping to have them in February, maybe sooner. Suggested Lomproc."],"Latest report yes?":0,"Latitude":34.95107350000001,"Location Type":"Hospital / Clinic","Longitude":-120.4123012,"Name":"Marian Regional Medical Center[10] – Santa Maria"},{"Address":"3059 Hopyard Rd. Ste. C, Pleasanton, CA 94588","Affiliation":"None / Unknown / Unimportant","Appointment scheduling instructions":[null],"Availability Info":["No: no vaccine inventory"],"County":"Alameda County","Has Report":1,"Latest report":"2021-01-28T03:20:22.000Z","Latest report yes?":0,"Latitude":37.677382,"Location Type":"Pharmacy","Longitude":-121.895973,"Name":"Clear Choice Pharmacy"},{"Address":"11741 Valley View St Ste L, Cypress, CA 90630","Affiliation":"None / Unknown / Unimportant","County":"Orange County","Has Report":0,"Latest report yes?":0,"Latitude":33.792348,"Location Type":"Pharmacy","Longitude":-118.029001,"Name":"EastGate Pharmacy"},{"Address":"22277 MULHOLLAND HWY, CALABASAS, CA 91302","Affiliation":"None / Unknown / Unimportant","Appointment scheduling instructions":[null],"Availability Info":["No: no vaccine inventory"],"County":"Los Angeles County","Has Report":1,"Latest report":"2021-01-29T06:39:00.000Z","Latest report yes?":0,"Latitude":34.146609,"Location Type":"Pharmacy","Longitude":-118.612504,"Name":"CALABASAS PHARMACY AND HEALTHCARE CENTER"},{"Address":"4401 S MAIN ST, LOS ANGELES, CA 90037","Affiliation":"None / Unknown / Unimportant","Appointment scheduling instructions":[null],"Availability Info":["No: no vaccine inventory"],"County":"Los Angeles County","Has Report":1,"Latest report":"2021-01-30T21:13:26.000Z","Latest report yes?":0,"Latitude":34.00363,"Location Type":"Pharmacy","Longitude":-118.27426,"Name":"Vernon-Main Pharmacy"},{"Address":"4949 GOSFORD RD, BAKERSFIELD, CA 93313","Affiliation":"Walgreens","Appointment scheduling instructions":[null],"Availability Info":["No: no vaccine inventory"],"County":"Kern County","Has Report":1,"Latest report":"2021-01-28T03:20:26.000Z","Latest report yes?":0,"Latitude":35.309823,"Location Type":"Pharmacy","Longitude":-119.092804,"Name":"WALGREENS #7909"},{"Address":"3001 TARAVAL ST, SAN FRANCISCO, CA 94116","Affiliation":"Walgreens","County":"San Francisco","Has Report":0,"Latest report yes?":0,"Latitude":37.741884,"Location Type":"Pharmacy","Longitude":-122.498392,"Name":"WALGREENS #4570"},{"Address":"480 MCKINLEY ST, CORONA, CA 92879","Affiliation":"Costco Pharmacy","Availability Info":["No: no vaccine inventory"],"County":"Riverside County","Has Report":1,"Latest report":"2021-02-10T05:35:19.000Z","Latest report notes":[null],"Latest report yes?":0,"Latitude":33.886811,"Location Type":"Pharmacy","Longitude":-117.524679,"Name":"COSTCO PHARMACY #432"},{"Address":"2135 COWELL BOULEVARD, DAVIS, CA 95616","Affiliation":"Rite-Aid","Availability Info":["No: no vaccine inventory"],"County":"Yolo County","Has Report":1,"Latest report":"2021-02-09T08:04:49.000Z","Latest report notes":[null],"Latest report yes?":0,"Latitude":38.541739,"Location Type":"Pharmacy","Longitude":-121.725051,"Name":"RITE AID PHARMACY 06197"},{"Address":"1336 W. Valley Blvd Ste B, Alhambra, CA 91803","Affiliation":"None / Unknown / Unimportant","Appointment scheduling instructions":[null],"Availability Info":["No: will never be a vaccination site"],"County":"Los Angeles County","Has Report":1,"Latest report":"2021-01-30T21:13:41.000Z","Latest report yes?":0,"Latitude":34.077569,"Location Type":"Pharmacy","Longitude":-118.137638,"Name":"Hung Jen Pharmacy"},{"Address":"31 FAIR LANE COUNTY FAIR SHOPPING CENTER, PLACERVILLE, CA 95667","Affiliation":"Rite-Aid","Availability Info":["No: no vaccine inventory"],"County":"El Dorado County","Has Report":1,"Latest report":"2021-02-10T05:35:56.000Z","Latest report notes":[null],"Latest report yes?":0,"Latitude":38.722985,"Location Type":"Pharmacy","Longitude":-120.833491,"Name":"RITE AID PHARMACY 06058"},{"Address":"1060 Exposition Blvd.\nLos Angeles, CA 90037","Affiliation":"None / Unknown / Unimportant","County":"Los Angeles County","Has Report":0,"Latest report yes?":0,"Latitude":34.018263261891015,"Location Type":"Hospital / Clinic","Longitude":-118.29391953084996,"Name":"St. John’s Well Child and Family Center Rolland Curtis"},{"Address":"1237 W CARSON STREET, TORRANCE, CA 90502","Affiliation":"Rite-Aid","Appointment scheduling instructions":["Rite Aid's website. "],"Availability Info":["Yes: vaccinating 65+","Yes: appointment required"],"County":"Los Angeles County","Has Report":1,"Latest report":"2021-02-04T19:47:19.000Z","Latest report notes":["Feb 04: Pharmacist recommends registering via Rite Aid starting Monday. "],"Latest report yes?":1,"Latitude":33.832275,"Location Type":"Pharmacy","Longitude":-118.298135,"Name":"RITE AID PHARMACY 05492"},{"Address":"476 E Washington Ave, Earlimart, CA 93219","Affiliation":"None / Unknown / Unimportant","Appointment scheduling instructions":[null],"Availability Info":["No: no vaccine inventory"],"County":"Tulare County","Has Report":1,"Latest report":"2021-02-02T00:22:12.000Z","Latest report notes":["Patients 65+ can call (661) 849-2781 to be put on a waitlist for when vaccines become available"],"Latest report yes?":0,"Latitude":35.884662,"Location Type":"Pharmacy","Longitude":-119.271689,"Name":"United Health Centers Pharmacy Earlimart"},{"Address":"1526 MISSION ST, S PASADENA, CA 91030","Affiliation":"None / Unknown / Unimportant","Availability Info":["No: will never be a vaccination site"],"County":"Los Angeles County","Has Report":1,"Latest report":"2021-02-04T06:22:42.000Z","Latest report notes":[null],"Latest report yes?":0,"Latitude":34.116002,"Location Type":"Pharmacy","Longitude":-118.150986,"Name":"FAIR OAKS PHARMACY \u0026 SODA FOUNTAIN"},{"Address":"14291 EUCLID ST STE D104, GARDEN GROVE, CA 92843","Affiliation":"None / Unknown / Unimportant","Appointment scheduling instructions":[null],"Availability Info":["No: no vaccine inventory"],"County":"Orange County","Has Report":1,"Latest report":"2021-01-28T03:20:12.000Z","Latest report yes?":0,"Latitude":33.755178,"Location Type":"Pharmacy","Longitude":-117.938193,"Name":"TRAN PHARMACY"},{"Address":"1322 EL CAMINO REAL, SAN BRUNO, CA 94066","Affiliation":"Lucky Pharmacy","Appointment scheduling instructions":[null],"Availability Info":["No: no vaccine inventory"],"County":"San Mateo County","Has Report":1,"Latest report":"2021-01-28T03:19:55.000Z","Latest report yes?":0,"Latitude":37.639977,"Location Type":"Pharmacy","Longitude":-122.421956,"Name":"Lucky Pharmacy (1322 El Camino Real)"},{"Address":"410 Cloverleaf Dr, Baldwin Park, CA 91706","Affiliation":"None / Unknown / Unimportant","County":"Los Angeles County","Has Report":0,"Latest report yes?":0,"Latitude":34.062072,"Location Type":"Pharmacy","Longitude":-118.001558,"Name":"Premier Pharmacy Services (410 Cloverleaf Dr)"},{"Address":"435 W Foothill Blvd, GLENDORA, CA 91741","Affiliation":"Von's Pharmacy","Appointment scheduling instructions":["Appointments through: https://www.vons.com/pharmacy/covid-19.html or the LA County health site at http://publichealth.lacounty.gov/acd/ncorona2019/vaccine/hcwsignup/"],"Availability Info":["Yes: appointment required","Yes: vaccinating 65+"],"County":"Los Angeles County","Has Report":1,"Latest report":"2021-02-05T19:16:07.000Z","Latest report notes":["Staff suggested to try booking later at night (around 9 or 10pm) to have better luck getting an appointment. They were booking almost 2 months out right now. "],"Latest report yes?":1,"Latitude":34.137262,"Location Type":"Pharmacy","Longitude":-117.871645,"Name":"VONS PHARMACY #2169"},{"Address":"7475 Camino Arroyo, Gilroy, CA 95020","Affiliation":"None / Unknown / Unimportant","Appointment scheduling instructions":["https://vax.sccgov.org/home \nVaccine eligibility and scheduling from Santa Clara County DPH and Santa Clara Valley Medical Center \nAppointments available starting Feb. 22"],"Availability Info":["Yes: appointment required","Yes: vaccinating 65+","Yes: restricted to county residents"],"County":"Santa Clara County","Has Report":1,"Latest report":"2021-02-09T00:56:51.000Z","Latest report notes":[null],"Latest report yes?":1,"Latitude":37.01188847024007,"Location Type":"Hospital / Clinic","Longitude":-121.55689709629536,"Name":"Valley Health Center Gilroy"},{"Address":"46848 MISSION BLVD, FREMONT, CA 94539","Affiliation":"Safeway","Appointment scheduling instructions":[null],"Availability Info":["No: no vaccine inventory"],"County":"Alameda County","Has Report":1,"Latest report":"2021-01-28T03:19:51.000Z","Latest report yes?":0,"Latitude":37.488608,"Location Type":"Pharmacy","Longitude":-121.930743,"Name":"SAFEWAY PHARMACY #1931"},{"Address":" 47111 Monroe St, Indio, CA 92201","Affiliation":"None / Unknown / Unimportant","Appointment scheduling instructions":[null],"Availability Info":["No: only vaccinating health care workers"],"County":"Riverside County","Has Report":1,"Latest report":"2021-01-30T22:54:01.000Z","Latest report notes":[null],"Latest report yes?":0,"Latitude":33.7064974,"Location Type":"Hospital / Clinic","Longitude":-116.2360926,"Name":"John F. Kennedy Memorial Hospital – Indio"},{"Address":"401 N Central Ave, Wasco, CA 93280","Affiliation":"Walmart","County":"Kern County","Has Report":0,"Latest report yes?":0,"Latitude":35.604363,"Location Type":"Pharmacy","Longitude":-119.359411,"Name":"Walmart Pharmacy 10-5859"},{"Address":"1212 Pico St, SAN FERNANDO, CA 91340","Affiliation":"None / Unknown / Unimportant","Appointment scheduling instructions":[null],"Availability Info":["No: no vaccine inventory"],"County":"Los Angeles County","Has Report":1,"Latest report":"2021-01-30T21:13:50.000Z","Latest report yes?":0,"Latitude":34.283247,"Location Type":"Pharmacy","Longitude":-118.444509,"Name":"LOS ANGELES COUNTY SAN FERNANDO PHARMACY"},{"Address":"3500 Palmer Dr, Cameron Park CA, 95682","Affiliation":"CVS","Availability Info":["No: no vaccine inventory"],"County":"El Dorado County","Has Report":1,"Latest report":"2021-02-10T05:35:56.000Z","Latest report notes":[null],"Latest report yes?":0,"Latitude":38.6606,"Location Type":"Pharmacy","Longitude":-120.9666,"Name":"CVS Pharmacy® \u0026 Drug Store at 3500 Palmer Dr Cameron Park, CA 95682"},{"Address":"14571 MAGNOLIA ST STE 104, WESTMINSTER, CA 92683","Affiliation":"None / Unknown / Unimportant","Appointment scheduling instructions":[null],"Availability Info":["No: no vaccine inventory"],"County":"Orange County","Has Report":1,"Latest report":"2021-01-28T02:46:15.000Z","Latest report yes?":0,"Latitude":33.751485,"Location Type":"Pharmacy","Longitude":-117.972488,"Name":"MAY PHARMACY"},{"Address":"22915 VICTORY BLVD, WEST HILLS, CA 91307","Affiliation":"Ralph's Pharmacy","Appointment scheduling instructions":["https://www.ralphs.com/rx/guest/get-vaccinated"],"Availability Info":["Yes: appointment required","Yes: appointment calendar currently full","Yes: vaccinating 65+"],"County":"Los Angeles County","Has Report":1,"Latest report":"2021-02-05T19:54:46.000Z","Latest report notes":["Feb 5: Appointments currently full"],"Latest report yes?":1,"Latitude":34.186597,"Location Type":"Pharmacy","Longitude":-118.625487,"Name":"Ralphs Pharmacy #213 (22915 Victory Blvd)"},{"Address":"17010 CHATSWORTH ST, GRANADA HILLS, CA 91344","Affiliation":"Walgreens","County":"Los Angeles County","Has Report":0,"Latest report yes?":0,"Latitude":34.264543,"Location Type":"Pharmacy","Longitude":-118.502785,"Name":"WALGREENS #5566"},{"Address":"101 Arbuckle Ct, Weaverville, CA 96093","Affiliation":"None / Unknown / Unimportant","Availability Info":["No: no vaccine inventory"],"County":"Trinity County","Has Report":1,"Latest report":"2021-01-26T18:35:01.000Z","Latest report notes":["Appointments for the Point of Distribution sites for 1/29 and 1/30 are full, according to Trinity Co. Health \u0026 Human services on 1/26 phone call. No new dates are scheduled. "],"Latest report yes?":0,"Latitude":40.71169512175575,"Location Type":"Super Site","Longitude":-122.92439985026283,"Name":"Trinity County PODS - Trinity Alps Performing Arts Center"},{"Address":"7012 Reseda Blvd Ste A # 1, Reseda, CA 91335","Affiliation":"None / Unknown / Unimportant","Availability Info":["No: will never be a vaccination site"],"County":"Los Angeles County","Has Report":1,"Latest report":"2021-02-04T06:23:30.000Z","Latest report notes":[null],"Latest report yes?":0,"Latitude":34.197953,"Location Type":"Pharmacy","Longitude":-118.535846,"Name":"Health Source Pharmacy LLC"},{"Address":"11333 North Sepulveda Blvd Ste 1200, Mission Hills, CA 91345","Affiliation":"None / Unknown / Unimportant","Availability Info":["No: no vaccine inventory"],"County":"Los Angeles County","Has Report":1,"Latest report":"2021-02-04T06:23:16.000Z","Latest report notes":[null],"Latest report yes?":0,"Latitude":34.27646,"Location Type":"Pharmacy","Longitude":-118.46863,"Name":"Reliance Pharmacy"},{"Address":"2929 HEALTH CENTER DR, SAN DIEGO, CA 92123","Affiliation":"None / Unknown / Unimportant","Appointment scheduling instructions":[null],"Availability Info":["No: no vaccine inventory"],"County":"San Diego County","Has Report":1,"Latest report":"2021-01-28T02:46:15.000Z","Latest report yes?":0,"Latitude":32.798588,"Location Type":"Pharmacy","Longitude":-117.15463,"Name":"Sharp Rees Stealy Pharmacy (2929 Health Center Dr)"},{"Address":"72780 Country Club Dr Ste 403, Rancho Mirage, CA 92270","Affiliation":"None / Unknown / Unimportant","Appointment scheduling instructions":[null],"Availability Info":["No: no vaccine inventory"],"County":"Riverside County","Has Report":1,"Latest report":"2021-01-28T03:20:06.000Z","Latest report notes":["Awaiting shipment of vaccine."],"Latest report yes?":0,"Latitude":33.758436,"Location Type":"Pharmacy","Longitude":-116.392473,"Name":"VivaRx"},{"Address":"2925 sycamore dr. #100, simi valley, CA 93065","Affiliation":"None / Unknown / Unimportant","Appointment scheduling instructions":[null],"Availability Info":["No: no vaccine inventory"],"County":"Ventura County","Has Report":1,"Latest report":"2021-01-28T02:46:15.000Z","Latest report yes?":0,"Latitude":34.288402,"Location Type":"Pharmacy","Longitude":-118.744743,"Name":"Simi Care Pharmacy"},{"Address":"36243 Inland Valley Dr #130, Wildomar, CA 92595","Affiliation":"None / Unknown / Unimportant","Appointment scheduling instructions":[null],"Availability Info":["No: no vaccine inventory"],"County":"Riverside County","Has Report":1,"Latest report":"2021-01-28T02:46:04.000Z","Latest report yes?":0,"Latitude":33.591427,"Location Type":"Pharmacy","Longitude":-117.23962,"Name":"bear creek pharmacy"},{"Address":"30019 HAWTHORNE BLVD, RANCHO PALOS VERDES, CA 90275","Affiliation":"Ralph's Pharmacy","Availability Info":["No: no vaccine inventory"],"County":"Los Angeles County","Has Report":1,"Latest report":"2021-02-10T05:35:56.000Z","Latest report notes":[null],"Latest report yes?":0,"Latitude":33.760508,"Location Type":"Pharmacy","Longitude":-118.394653,"Name":"Ralphs Pharmacy (30019 Hawthorne Blvd)"},{"Address":"306 E PACIFIC COAST HWY SUITE 101, LONG BEACH, CA 90806","Affiliation":"None / Unknown / Unimportant","Availability Info":["No: no vaccine inventory"],"County":"Los Angeles County","Has Report":1,"Latest report":"2021-02-04T06:22:42.000Z","Latest report notes":[null],"Latest report yes?":0,"Latitude":33.789576,"Location Type":"Pharmacy","Longitude":-118.188584,"Name":"PCH MEDICAL PHARMACY"},{"Address":"2811 H St, Bakersfield, CA 93301","Affiliation":"None / Unknown / Unimportant","County":"Kern County","Has Report":0,"Latest report yes?":0,"Latitude":35.3852826,"Longitude":-119.0215195,"Name":"OMNI Family Health - H Street"},{"Address":"424-D ARNEILL ROAD, CAMARILLO, CA 93010","Affiliation":"None / Unknown / Unimportant","Appointment scheduling instructions":[null],"Availability Info":["No: no vaccine inventory"],"County":"Ventura County","Has Report":1,"Latest report":"2021-01-28T02:45:52.000Z","Latest report yes?":0,"Latitude":34.221255,"Location Type":"Pharmacy","Longitude":-119.03892,"Name":"VU PHARMACY"},{"Address":"3951 Grand Ave, CHINO, CA 91710","Affiliation":"Sam's Pharmacy","County":"San Bernardino County","Has Report":0,"Latest report yes?":0,"Latitude":33.995421,"Location Type":"Pharmacy","Longitude":-117.71556,"Name":"SAMS PHARMACY 10-6610"},{"Address":"3800 DALE ROAD, MODESTO, CA 95357","Affiliation":"Kaiser Pharmacy","County":"Stanislaus County","Has Report":0,"Latest report yes?":0,"Latitude":37.694041,"Location Type":"Pharmacy","Longitude":-121.048692,"Name":"KAISER PERMANENTE PHARMACY #833"},{"Address":"75 N BROADWAY, CHULA VISTA, CA 91910","Affiliation":"Walmart","Appointment scheduling instructions":[null],"Availability Info":["No: no vaccine inventory"],"County":"San Diego County","Has Report":1,"Latest report":"2021-01-29T06:36:24.000Z","Latest report yes?":0,"Latitude":32.651174,"Location Type":"Pharmacy","Longitude":-117.094061,"Name":"WALMART PHARMACY 10-2291"},{"Address":"3382 Murphy Canyon Rd, SAN DIEGO, CA 92123","Affiliation":"Walmart","Appointment scheduling instructions":[null],"Availability Info":["No: no vaccine inventory"],"County":"San Diego County","Has Report":1,"Latest report":"2021-01-29T06:36:31.000Z","Latest report yes?":0,"Latitude":32.80537,"Location Type":"Pharmacy","Longitude":-117.115873,"Name":"WALMART PHARMACY 10-2177"},{"Address":"864 Swarthmore Avenue, Pacific Palisades CA, 90272","Affiliation":"CVS","Availability Info":["No: no vaccine inventory"],"County":"Los Angeles County","Has Report":1,"Latest report":"2021-02-10T05:35:33.000Z","Latest report notes":[null],"Latest report yes?":0,"Latitude":34.0459,"Location Type":"Pharmacy","Longitude":-118.5256,"Name":"CVS Pharmacy® \u0026 Drug Store at 864 Swarthmore Avenue Pacific Palisades, CA 90272"},{"Affiliation":"None / Unknown / Unimportant","Availability Info":["No: not open to the public"],"County":"San Francisco","Has Report":1,"Latest report":"2021-01-14T17:58:26.000Z","Latest report notes":["The operator said that CPMC is not giving vaccines at the moment, but we should check online for more details (I couldn't find anything)"],"Latest report yes?":0,"Latitude":37.7859397,"Location Type":"Hospital / Clinic","Longitude":-122.4221856,"Name":"CPMC Van Ness Campus"},{"Address":"752 E ARROW HWY, POMONA, CA 91767","Affiliation":"None / Unknown / Unimportant","Availability Info":["No: no vaccine inventory"],"County":"Los Angeles County","Has Report":1,"Latest report":"2021-02-04T06:22:59.000Z","Latest report notes":[null],"Latest report yes?":0,"Latitude":34.089911,"Location Type":"Pharmacy","Longitude":-117.737393,"Name":"Express pharmacy - E Arrow Hwy"},{"Address":"17822 BEACH BLVD, Huntington Beach, CA 92647","Affiliation":"None / Unknown / Unimportant","Appointment scheduling instructions":[null],"Availability Info":["No: no vaccine inventory"],"County":"Orange County","Has Report":1,"Latest report":"2021-01-28T02:45:47.000Z","Latest report yes?":0,"Latitude":33.703326,"Location Type":"Pharmacy","Longitude":-117.988095,"Name":"MEDICAL TOWERS PHARMACY"},{"Address":"2370 WESTWOOD BLVD, WEST LOS ANGELES, CA 90064","Affiliation":"None / Unknown / Unimportant","County":"Los Angeles County","Has Report":0,"Latest report yes?":0,"Latitude":34.04099,"Location Type":"Pharmacy","Longitude":-118.429035,"Name":"PICWOOD PHARMACY"},{"Affiliation":"None / Unknown / Unimportant","Appointment scheduling instructions":[null],"Availability Info":["No: incorrect contact information"],"County":"Kern County","Has Report":1,"Latest report":"2021-02-08T19:13:33.000Z","Latest report notes":[null],"Latest report yes?":0,"Latitude":35.64086169999999,"Location Type":"Hospital / Clinic","Longitude":-117.6713942,"Name":"Ridgecrest Regional Hospital – Ridgecrest"},{"Address":"1106 E 17th St Ste B, Santa Ana, CA 92701","Affiliation":"None / Unknown / Unimportant","Appointment scheduling instructions":[null],"Availability Info":["No: no vaccine inventory"],"County":"Orange County","Has Report":1,"Latest report":"2021-01-28T02:21:29.000Z","Latest report yes?":0,"Latitude":33.759801,"Location Type":"Pharmacy","Longitude":-117.855829,"Name":"ALLCARE PHARMACY #3"},{"Address":"1032 OAKDALE ROAD, MODESTO, CA 95355","Affiliation":"Rite-Aid","Availability Info":["No: no vaccine inventory"],"County":"Stanislaus County","Has Report":1,"Latest report":"2021-02-10T05:35:33.000Z","Latest report notes":[null],"Latest report yes?":0,"Latitude":37.657147,"Location Type":"Pharmacy","Longitude":-120.956838,"Name":"RITE AID PHARMACY 06010"},{"Address":"450 E CYPRESS AVE, REDLANDS, CA 92373","Affiliation":"Sav-on Pharmacy","Availability Info":["No: no vaccine inventory"],"County":"San Bernardino County","Has Report":1,"Latest report":"2021-01-24T19:37:56.000Z","Latest report notes":["Jan 23: They are giving vaccines but are not accepting new appointments until they get more supply. Recommend checking at https://sbcovid19.com/"],"Latest report yes?":0,"Latitude":34.048851,"Location Type":"Pharmacy","Longitude":-117.171502,"Name":"SAVON PHARMACY #1319"},{"Address":"8425 Laurel Canyon Blvd., Sun Valley CA, 91352","Affiliation":"CVS","County":"Los Angeles County","Has Report":0,"Latest report yes?":0,"Latitude":34.2242,"Location Type":"Pharmacy","Longitude":-118.3984,"Name":"CVS Pharmacy® \u0026 Drug Store at 8425 Laurel Canyon Blvd. Sun Valley, CA 91352"},{"Address":"401 BICENTENNIAL WAY, SANTA ROSA, CA 95403","Affiliation":"Kaiser Health Plan","Availability Info":["Yes: appointment required","Yes: vaccinating 75+","Yes: must be a current patient"],"County":"Sonoma County","Has Report":1,"Latest report":"2021-02-10T05:03:49.000Z","Latest report notes":[null],"Latest report yes?":1,"Latitude":38.471618,"Location Type":"Pharmacy","Longitude":-122.725982,"Name":"KAISER HEALTH PLAN EAST PHARMACY 583"},{"Address":"12643 Sherman Way Ste C, North Hollywood, CA 91605","Affiliation":"None / Unknown / Unimportant","Appointment scheduling instructions":[null],"Availability Info":["No: will never be a vaccination site"],"County":"Los Angeles County","Has Report":1,"Latest report":"2021-01-30T21:13:41.000Z","Latest report yes?":0,"Latitude":34.201359,"Location Type":"Pharmacy","Longitude":-118.408368,"Name":"PRIMA PHARMACY"},{"Address":"7373 WEST LANE 1ST FLOOR, STOCKTON, CA 95210","Affiliation":"Kaiser Health Plan","County":"San Joaquin County","Has Report":0,"Latest report yes?":0,"Latitude":38.017636,"Location Type":"Pharmacy","Longitude":-121.297499,"Name":"KAISER HEALTH PLAN MOB 1 PHY 684"},{"Address":"1575 W Pacheco Blvd, LOS BANOS, CA 93635","Affiliation":"Walmart","Availability Info":["No: no vaccine inventory"],"County":"Merced County","Has Report":1,"Latest report":"2021-01-17T22:56:50.000Z","Latest report notes":["No sense for ETA"],"Latest report yes?":0,"Latitude":37.056411,"Location Type":"Pharmacy","Longitude":-120.880392,"Name":"WALMART PHARMACY 10-2117"},{"Address":"1809 Verdugo Blvd Ste 110, Glendale, CA 91208","Affiliation":"None / Unknown / Unimportant","Availability Info":["No: no vaccine inventory"],"County":"Los Angeles County","Has Report":1,"Latest report":"2021-02-04T06:23:35.000Z","Latest report notes":[null],"Latest report yes?":0,"Latitude":34.175698,"Location Type":"Pharmacy","Longitude":-118.225638,"Name":"986 Pharmacy #8007"},{"Address":"137 N HARVARD AVE, CLAREMONT, CA 91711","Affiliation":"None / Unknown / Unimportant","Availability Info":["No: no vaccine inventory"],"County":"Los Angeles County","Has Report":1,"Latest report":"2021-02-04T06:23:49.000Z","Latest report notes":[null],"Latest report yes?":0,"Latitude":34.09504,"Location Type":"Pharmacy","Longitude":-117.716548,"Name":"HENDRICKS PHARMACY"},{"Address":"26751 PORTOLA PARKWAY, FOOTHILL RANCH, CA 92610","Affiliation":"Ralph's Pharmacy","Availability Info":["No: no vaccine inventory"],"County":"Orange County","Has Report":1,"Latest report":"2021-02-10T05:35:50.000Z","Latest report notes":[null],"Latest report yes?":0,"Latitude":33.680303,"Location Type":"Pharmacy","Longitude":-117.663082,"Name":"Ralphs Pharmacy (26751 Portola Parkway)"},{"Address":"8844 Limonite Ave, Riverside, CA 92509","Affiliation":"Walmart","Appointment scheduling instructions":[null],"Availability Info":["No: no vaccine inventory"],"County":"Riverside County","Has Report":1,"Latest report":"2021-01-29T06:36:25.000Z","Latest report yes?":0,"Latitude":33.975389,"Location Type":"Pharmacy","Longitude":-117.477614,"Name":"Walmart Pharmacy 10-5663"},{"Address":"6055 Niles St, Bakersfield, CA 93305","Affiliation":"None / Unknown / Unimportant","Availability Info":["No: incorrect contact information"],"County":"Kern County","Has Report":1,"Latest report":"2021-01-26T23:22:26.000Z","Latest report notes":[null],"Latest report yes?":0,"Latitude":35.376983672161444,"Location Type":"Hospital / Clinic","Longitude":-118.93710736160784,"Name":"Niles Children's Clinic/Universal Urgent Care-Children’s"},{"Address":"45104 10th St W Ste A, Lancaster, CA 93534","Affiliation":"None / Unknown / Unimportant","Availability Info":["No: will never be a vaccination site"],"County":"Los Angeles County","Has Report":1,"Latest report":"2021-02-04T06:23:35.000Z","Latest report notes":[null],"Latest report yes?":0,"Latitude":34.701579,"Location Type":"Pharmacy","Longitude":-118.147936,"Name":"JWCH PMQ Lancaster Pharmacy"},{"Address":"1210 NORTH BLACKSTONE AVENUE, FRESNO, CA 93703","Affiliation":"Rite-Aid","Availability Info":["No: no vaccine inventory"],"County":"Fresno County","Has Report":1,"Latest report":"2021-02-10T05:35:44.000Z","Latest report notes":[null],"Latest report yes?":0,"Latitude":36.758071,"Location Type":"Pharmacy","Longitude":-119.790147,"Name":"RITE AID PHARMACY 05862"},{"Affiliation":"None / Unknown / Unimportant","Availability Info":["No: not open to the public"],"County":"Contra Costa County","Has Report":1,"Latest report":"2021-01-14T19:04:11.000Z","Latest report notes":["No vaccines at all at this hospital."],"Latest report yes?":0,"Latitude":37.9129635,"Location Type":"Hospital / Clinic","Longitude":-122.0412154,"Name":"John Muir Walnut Creek Medical Center – Walnut Creek"},{"Address":"1855 N Fair Oaks Ave Suite 100, Pasadena, CA 91103","Affiliation":"None / Unknown / Unimportant","Appointment scheduling instructions":[null],"Availability Info":["Yes: must be a current patient","Yes: vaccinating 75+"],"County":"Los Angeles County","Has Report":1,"Latest report":"2021-02-04T23:55:59.000Z","Latest report notes":[null],"Latest report yes?":1,"Latitude":34.177681,"Location Type":"Pharmacy","Longitude":-118.15122,"Name":"Community Health Alliance of Pasadena"},{"Address":"300 University Ave, Palo Alto, CA 94301","Affiliation":"Walgreens","Appointment scheduling instructions":[null],"Availability Info":["No: no vaccine inventory"],"County":"Santa Clara County","Has Report":1,"Latest report":"2021-01-29T06:36:26.000Z","Latest report yes?":0,"Latitude":37.445904,"Location Type":"Pharmacy","Longitude":-122.161165,"Name":"WALGREENS #13596"},{"Address":"5600 Whittier Blvd, Commerce CA, 90022","Affiliation":"CVS","Availability Info":["No: no vaccine inventory"],"County":"Los Angeles County","Has Report":1,"Latest report":"2021-02-10T05:35:13.000Z","Latest report notes":[null],"Latest report yes?":0,"Latitude":34.0177,"Location Type":"Pharmacy","Longitude":-118.1506,"Name":"CVS Pharmacy® at 5600 Whittier Blvd Commerce, CA 90022"},{"Address":"955 TAMARACK AVENUE, CARLSBAD, CA 92008","Affiliation":"Rite-Aid","Availability Info":["No: no vaccine inventory"],"County":"San Diego County","Has Report":1,"Latest report":"2021-02-09T07:35:27.000Z","Latest report notes":[null],"Latest report yes?":0,"Latitude":33.15188,"Location Type":"Pharmacy","Longitude":-117.334967,"Name":"RITE AID PHARMACY 05621"},{"Address":"949 KENDALL DRIVE, SAN BERNARDINO, CA 92407","Affiliation":"Rite-Aid","Appointment scheduling instructions":[null],"Availability Info":["No: no vaccine inventory"],"County":"San Bernardino County","Has Report":1,"Latest report":"2021-01-28T03:19:50.000Z","Latest report yes?":0,"Latitude":34.162726,"Location Type":"Pharmacy","Longitude":-117.304487,"Name":"RITE AID PHARMACY 05711"},{"Address":"4725 QUAIL LAKES DRIVE, STOCKTON, CA 95207","Affiliation":"Save Mart Pharmacy","Appointment scheduling instructions":[null],"Availability Info":["No: no vaccine inventory"],"County":"San Joaquin County","Has Report":1,"Latest report":"2021-01-28T03:20:16.000Z","Latest report yes?":0,"Latitude":37.986423,"Location Type":"Pharmacy","Longitude":-121.342247,"Name":"SAVE MART PHARMACY - QUAIL LAKES #39"},{"Address":"1665 ALPINE BOULEVARD, ALPINE, CA 91901","Affiliation":"Rite-Aid","Availability Info":["No: no vaccine inventory"],"County":"San Diego County","Has Report":1,"Latest report":"2021-02-09T07:35:35.000Z","Latest report notes":[null],"Latest report yes?":0,"Latitude":32.837257,"Location Type":"Pharmacy","Longitude":-116.779045,"Name":"RITE AID PHARMACY 06225"},{"Address":"10666 N Torrey Pines Rd 2nd Floor, La Jolla, CA 92037","Affiliation":"None / Unknown / Unimportant","Appointment scheduling instructions":[null],"Availability Info":["No: no vaccine inventory"],"County":"San Diego County","Has Report":1,"Latest report":"2021-01-28T02:46:09.000Z","Latest report yes?":0,"Latitude":32.896502,"Location Type":"Pharmacy","Longitude":-117.242644,"Name":"Scripps Health Green Ambulatory Pharmacy"},{"Address":"2101 Herndon Ave Ste 102, Clovis, CA 93611","Affiliation":"None / Unknown / Unimportant","Appointment scheduling instructions":[null],"Availability Info":["No: no vaccine inventory"],"County":"Fresno County","Has Report":1,"Latest report":"2021-01-28T02:46:11.000Z","Latest report yes?":0,"Latitude":36.838234,"Location Type":"Pharmacy","Longitude":-119.677163,"Name":"MixMed Pharmacy"},{"Address":"1141 W AVE L, LANCASTER, CA 93534","Affiliation":"Costco Pharmacy","County":"Los Angeles County","Has Report":0,"Latest report yes?":0,"Latitude":34.66129,"Location Type":"Pharmacy","Longitude":-118.151429,"Name":"COSTCO PHARMACY #762"},{"Address":"21572 Plano Trabuco Rd., Trabuco Canyon CA, 92679","Affiliation":"CVS","Availability Info":["No: no vaccine inventory"],"County":"Orange County","Has Report":1,"Latest report":"2021-02-10T05:35:50.000Z","Latest report notes":[null],"Latest report yes?":0,"Latitude":33.6491,"Location Type":"Pharmacy","Longitude":-117.5761,"Name":"CVS Pharmacy® \u0026 Drug Store at 21572 Plano Trabuco Rd. Trabuco Canyon, CA 92679"},{"Address":"29675 THE OLD ROAD NORTH, CASTAIC, CA 91384","Affiliation":"Ralph's Pharmacy","Appointment scheduling instructions":[null],"Availability Info":["No: no vaccine inventory"],"County":"Los Angeles County","Has Report":1,"Latest report":"2021-01-29T20:45:08.000Z","Latest report notes":["Jan 29: Is a vaccination site, but currently awaiting new shipment of doses."],"Latest report yes?":0,"Latitude":34.456807,"Location Type":"Pharmacy","Longitude":-118.619007,"Name":"Ralphs Pharmacy (29675 The Old Road North)"},{"Address":"72549 Highway 111, Palm Desert CA, 92260","Affiliation":"CVS","County":"Riverside County","Has Report":0,"Latest report yes?":0,"Latitude":33.7237,"Location Type":"Pharmacy","Longitude":-116.4035,"Name":"CVS Pharmacy® at 72549 Highway 111 Palm Desert, CA 92260"},{"Address":"18 Endeavor #100, Irvine, CA 92618","Affiliation":"None / Unknown / Unimportant","Appointment scheduling instructions":[null],"Availability Info":["No: no vaccine inventory"],"County":"Orange County","Has Report":1,"Latest report":"2021-01-28T03:20:03.000Z","Latest report yes?":0,"Latitude":33.667082,"Location Type":"Pharmacy","Longitude":-117.761715,"Name":"Spectrum Pharmacy (18 Endeavor #100)"},{"Address":"9550 Hageman Rd, BAKERSFIELD, CA 93312","Affiliation":"Walgreens","County":"Kern County","Has Report":0,"Latest report yes?":0,"Latitude":35.398663,"Location Type":"Pharmacy","Longitude":-119.108499,"Name":"WALGREENS #6526"},{"Address":"205 W Shaw Ave, CLOVIS, CA 93612","Affiliation":"Walgreens","County":"Fresno County","Has Report":0,"Latest report yes?":0,"Latitude":36.809083,"Location Type":"Pharmacy","Longitude":-119.714284,"Name":"WALGREENS #7830"},{"Address":"602 MAIN ST, BRAWLEY, CA 92227","Affiliation":"None / Unknown / Unimportant","County":"Imperial County","Has Report":0,"Latest report yes?":0,"Latitude":32.978325,"Location Type":"Pharmacy","Longitude":-115.53191,"Name":"White Cross Pharmacy (602 Main St)"},{"Address":"2484 E GETTYSBURG AVE, FRESNO, CA 93726","Affiliation":"The Medicine Shoppe","County":"Fresno County","Has Report":0,"Latest report yes?":0,"Latitude":36.800962,"Location Type":"Pharmacy","Longitude":-119.781712,"Name":"The Medicine Shoppe Pharmacy (2484 E Gettysburg Ave)"},{"Address":"910 DIABLO AVENUE, NOVATO, CA 94947","Affiliation":"Rite-Aid","Availability Info":["No: no vaccine inventory"],"County":"Marin County","Has Report":1,"Latest report":"2021-02-09T08:04:44.000Z","Latest report notes":[null],"Latest report yes?":0,"Latitude":38.103237,"Location Type":"Pharmacy","Longitude":-122.573041,"Name":"RITE AID PHARMACY 05963"},{"Address":"357 N FAIRFAX AVE, LOS ANGELES, CA 90036","Affiliation":"None / Unknown / Unimportant","Availability Info":["No: will never be a vaccination site"],"County":"Los Angeles County","Has Report":1,"Latest report":"2021-02-04T06:22:42.000Z","Latest report notes":[null],"Latest report yes?":0,"Latitude":34.07775,"Location Type":"Pharmacy","Longitude":-118.3616,"Name":"SUNSHINE PHARMACY"},{"Address":"15614 Whittwood Ln, Whittier CA, 90603","Affiliation":"CVS","Availability Info":["No: no vaccine inventory"],"County":"Los Angeles County","Has Report":1,"Latest report":"2021-02-10T05:35:29.000Z","Latest report notes":[null],"Latest report yes?":0,"Latitude":33.9426,"Location Type":"Pharmacy","Longitude":-117.9965,"Name":"CVS Pharmacy® at 15614 Whittwood Ln Whittier, CA 90603"},{"Affiliation":"Kaiser","County":"Orange County","Has Report":0,"Latest report yes?":0,"Latitude":33.6581615,"Location Type":"Hospital / Clinic","Longitude":-117.7749019,"Name":"Kaiser, Orange County"},{"Address":"2000 Mowry Ave, Fremont, CA 94538","Affiliation":"None / Unknown / Unimportant","Appointment scheduling instructions":["*Washington Township Medical Foundation patients who meet the criteria to be vaccinated can schedule vaccination appointments through their personal MyChart account (https://mychart.whhs.com/MyChart/Authentication/Login?)\n\n*Community members can inquire about eligibility and appointments by calling our COVID-19 vaccination phone line at 510.248.8200, but \"please note that we are experiencing extremely long wait times in our call center.\""],"Availability Info":["Yes: appointment required","Yes: vaccinating 65+","Yes: restricted to county residents"],"County":"Alameda County","Has Report":1,"Latest report":"2021-02-05T00:12:56.000Z","Latest report notes":[null],"Latest report yes?":1,"Latitude":37.557294574580325,"Location Type":"Hospital / Clinic","Longitude":-121.97923801481882,"Name":"Washington Hospital Healthcare System"},{"Address":"3801 Sacramento St Ste 61, San Francisco, CA 94118\n","Affiliation":"Sutter","County":"San Francisco","Has Report":0,"Latest report yes?":0,"Latitude":37.78725926310514,"Location Type":"Hospital / Clinic","Longitude":-122.45564880191642,"Name":"Sutter Health-SF Sacramento St"},{"Address":"3001 Foothill Blvd, La Crescenta, CA 91214","Affiliation":"Walgreens","County":"Los Angeles County","Has Report":0,"Latest report yes?":0,"Latitude":34.227283,"Location Type":"Pharmacy","Longitude":-118.244578,"Name":"WALGREENS #1606"},{"Address":"800 N STATE COLLEGE BLVD, FULLERTON, CA 92831","Affiliation":"None / Unknown / Unimportant","County":"Orange County","Has Report":0,"Latest report yes?":0,"Latitude":33.879942,"Location Type":"Pharmacy","Longitude":-117.885447,"Name":"STUDENT HEALTH AND COUNSELING CENTER PHARMACY"},{"Address":"2374 FLORIN RD, SACRAMENTO, CA 95822","Affiliation":"None / Unknown / Unimportant","Appointment scheduling instructions":[null],"Availability Info":["No: no vaccine inventory"],"County":"Sacramento County","Has Report":1,"Latest report":"2021-01-28T02:45:42.000Z","Latest report yes?":0,"Latitude":38.495607,"Location Type":"Pharmacy","Longitude":-121.483978,"Name":"ANDERSON BROS FLORIN SQUARE PHARMACY"},{"Address":"820 SIR FRANCIS DRAKE BLVD, SAN ANSELMO, CA 94960","Affiliation":"Walgreens","County":"Marin County","Has Report":0,"Latest report yes?":0,"Latitude":37.979687,"Location Type":"Pharmacy","Longitude":-122.564276,"Name":"WALGREENS #7445"},{"Address":"1999 MOWRY AVE STE 2A, FREMONT, CA 94538","Affiliation":"None / Unknown / Unimportant","Appointment scheduling instructions":[null],"Availability Info":["No: no vaccine inventory"],"County":"Alameda County","Has Report":1,"Latest report":"2021-01-28T02:46:13.000Z","Latest report yes?":0,"Latitude":37.558442,"Location Type":"Pharmacy","Longitude":-121.981388,"Name":"Mowry Medical Pharmacy"},{"Address":"22015 Hawthorne Blvd, Torrance, CA 90503","Affiliation":"Walmart","Availability Info":["No: no vaccine inventory"],"County":"Los Angeles County","Has Report":1,"Latest report":"2021-01-25T01:23:20.000Z","Latest report notes":[null],"Latest report yes?":0,"Latitude":33.827838,"Location Type":"Pharmacy","Longitude":-118.353028,"Name":"WalMart Pharmacy 10-5874"},{"Address":"5420 Dewey Dr, Fair Oaks CA, 95628","Affiliation":"CVS","Availability Info":["No: no vaccine inventory"],"County":"Sacramento County","Has Report":1,"Latest report":"2021-02-10T05:35:25.000Z","Latest report notes":[null],"Latest report yes?":0,"Latitude":38.6644,"Location Type":"Pharmacy","Longitude":-121.3072,"Name":"CVS Pharmacy® \u0026 Drug Store at 5420 Dewey Dr Fair Oaks, CA 95628"},{"Address":"2444 West Beverly Blvd., Suite 2, Montebello CA, 90640","Affiliation":"CVS","Availability Info":["No: no vaccine inventory"],"County":"Los Angeles County","Has Report":1,"Latest report":"2021-02-10T05:35:33.000Z","Latest report notes":[null],"Latest report yes?":0,"Latitude":34.0216,"Location Type":"Pharmacy","Longitude":-118.1279,"Name":"CVS Pharmacy® \u0026 Drug Store at 2444 West Beverly Blvd., Suite 2 Montebello, CA 90640"},{"Address":"529 Foothill Blvd, LA CANADA FLINTRIDGE, CA 91011","Affiliation":"None / Unknown / Unimportant","Availability Info":["No: no vaccine inventory"],"County":"Los Angeles County","Has Report":1,"Latest report":"2021-02-04T06:23:12.000Z","Latest report notes":[null],"Latest report yes?":0,"Latitude":34.199961,"Location Type":"Pharmacy","Longitude":-118.190134,"Name":"FLINTRIDGE PHARMACY"},{"Address":"22220 Palos Verdes Blvd, Torrance, CA 90505","Affiliation":"None / Unknown / Unimportant","Availability Info":["No: no vaccine inventory"],"County":"Los Angeles County","Has Report":1,"Latest report":"2021-02-04T06:22:34.000Z","Latest report notes":[null],"Latest report yes?":0,"Latitude":33.826236,"Location Type":"Pharmacy","Longitude":-118.368832,"Name":"Southwood Pharmacy"},{"Address":"1201 SOUTH COAST HIGHWAY, OCEANSIDE, CA 92054","Affiliation":"Rite-Aid","Availability Info":["No: no vaccine inventory"],"County":"San Diego County","Has Report":1,"Latest report":"2021-02-09T07:35:48.000Z","Latest report notes":[null],"Latest report yes?":0,"Latitude":33.183436,"Location Type":"Pharmacy","Longitude":-117.369238,"Name":"RITE AID PHARMACY 05634"},{"Address":"5481 Commercial Dr Ste C, Huntington Beach, CA 92649","Affiliation":"None / Unknown / Unimportant","Appointment scheduling instructions":[null],"Availability Info":["No: no vaccine inventory"],"County":"Orange County","Has Report":1,"Latest report":"2021-01-28T02:45:59.000Z","Latest report yes?":0,"Latitude":33.738637,"Location Type":"Pharmacy","Longitude":-118.033275,"Name":"Champion RX"},{"Address":"CA-1, San Luis Obispo, CA 93405, United States\n805-546-3100","Affiliation":"County","Appointment scheduling instructions":["https://www.recoverslo.org/en/vaccine-registration.aspx"],"Availability Info":["Yes: appointment required","Yes: restricted to county residents","Yes: vaccinating 75+"],"County":"San Luis Obispo County","Has Report":1,"Latest report":"2021-01-28T19:56:08.000Z","Latest report notes":["[Jan 28] As per the county, additional appointments for next week available via website starting at 9 a.m. today on a first-come, first served basis."],"Latest report yes?":1,"Latitude":35.323669,"Location Type":"Super Site","Longitude":-120.743462,"Name":"Cuesta College - supersite"},{"Address":"2600 WILLOW PASS RD, CONCORD, CA 94519","Affiliation":"Safeway","Appointment scheduling instructions":["https://forms.microsoft.com/Pages/ResponsePage.aspx?id=3tkgKC3cY0OGJvKwA0OMRRd1QfIVjtpAkM-cYiio35ZUM0hIWVpaOTJHSDBTM0ZLSU5SNUM3NEo0OCQlQCN0PWcu"],"Availability Info":["Yes: appointment required","Yes: vaccinating 65+"],"County":"Contra Costa County","Has Report":1,"Latest report":"2021-02-06T00:37:57.000Z","Latest report notes":["Feb 05: Yes they have vaccines for 65+. Must make appointment at this link https://forms.microsoft.com/Pages/ResponsePage.aspx?id=3tkgKC3cY0OGJvKwA0OMRRd1QfIVjtpAkM-cYiio35ZUM0hIWVpaOTJHSDBTM0ZLSU5SNUM3NEo0OCQlQCN0PWcu\n"],"Latest report yes?":1,"Latitude":37.978534,"Location Type":"Pharmacy","Longitude":-122.029017,"Name":"SAFEWAY PHARMACY #0955"},{"Address":"18250 Roscoe Blvd Ste 104 SUITE 104, NORTHRIDGE, CA 91325","Affiliation":"None / Unknown / Unimportant","Availability Info":["No: no vaccine inventory"],"County":"Los Angeles County","Has Report":1,"Latest report":"2021-02-04T06:23:12.000Z","Latest report notes":[null],"Latest report yes?":0,"Latitude":34.220638,"Location Type":"Pharmacy","Longitude":-118.531132,"Name":"NORTHRIDGE CENTER PHARMACY"},{"Address":"8810 Grossmont Blvd, La Mesa, CA 91942","Affiliation":"Walmart","County":"San Diego County","Has Report":0,"Latest report yes?":0,"Latitude":32.773961,"Location Type":"Pharmacy","Longitude":-117.00787,"Name":"WalMart Pharmacy 10-5684"},{"Address":"18 Technology Dr. Suite 104, Irvine, CA 92618","Affiliation":"None / Unknown / Unimportant","Appointment scheduling instructions":[null],"Availability Info":["No: no vaccine inventory"],"County":"Orange County","Has Report":1,"Latest report":"2021-01-28T03:20:24.000Z","Latest report yes?":0,"Latitude":33.65204,"Location Type":"Pharmacy","Longitude":-117.737186,"Name":"Quality Drug Clinical Care"},{"Address":"33975 DATE PALM DRIVE, CATHEDRAL CITY, CA 92234","Affiliation":"Walgreens","County":"Riverside County","Has Report":0,"Latest report yes?":0,"Latitude":33.801975,"Location Type":"Pharmacy","Longitude":-116.458819,"Name":"WALGREENS #5301"},{"Address":"5695 Alton Pkwy, Irvine, CA 92618","Affiliation":"Walgreens","County":"Orange County","Has Report":0,"Latest report yes?":0,"Latitude":33.669753,"Location Type":"Pharmacy","Longitude":-117.785256,"Name":"WALGREENS #11786"},{"Address":"3440 E La Palma Ave, Anaheim, CA 92806","Affiliation":"Kaiser","County":"Orange County","Has Report":0,"Latest report yes?":0,"Latitude":33.8520823,"Location Type":"Hospital / Clinic","Longitude":-117.8441325,"Name":"Kaiser Permanente Anaheim Medical Center"},{"Address":"112 LA CASA VIA STE 100, WALNUT CREEK, CA 94598","Affiliation":"None / Unknown / Unimportant","Appointment scheduling instructions":[null],"Availability Info":["No: no vaccine inventory"],"County":"Contra Costa County","Has Report":1,"Latest report":"2021-01-28T03:20:24.000Z","Latest report yes?":0,"Latitude":37.911933,"Location Type":"Pharmacy","Longitude":-122.042699,"Name":"QD Pharmacy"},{"Address":"501 S Buena Vista St # 110, Burbank, CA 91505","Affiliation":"None / Unknown / Unimportant","Appointment scheduling instructions":[null],"Availability Info":["No: will never be a vaccination site"],"County":"Los Angeles County","Has Report":1,"Latest report":"2021-01-30T21:13:41.000Z","Latest report yes?":0,"Latitude":34.15603,"Location Type":"Pharmacy","Longitude":-118.328375,"Name":"Providence Saint Joseph Medical Center Retail Pharmacy"},{"Address":"9990 County Farm Rd. Suite 2-Pharmacy Dept, Riverside, CA 92503","Affiliation":"None / Unknown / Unimportant","Appointment scheduling instructions":[null],"Availability Info":["No: no vaccine inventory"],"County":"Riverside County","Has Report":1,"Latest report":"2021-01-28T03:20:33.000Z","Latest report yes?":0,"Latitude":33.919965,"Location Type":"Pharmacy","Longitude":-117.457892,"Name":"RUHS-Behavioral Health Retail Pharmacy"},{"Affiliation":"None / Unknown / Unimportant","Availability Info":["No: only vaccinating health care workers"],"County":"Santa Barbara County","Has Report":1,"Latest report":"2021-01-15T22:17:28.000Z","Latest report notes":["healthcare workers and people over 70"],"Latest report yes?":0,"Latitude":34.6018764,"Location Type":"Hospital / Clinic","Longitude":-120.1261802,"Name":"Santa Ynez Valley Cottage Hospital – Solvang"},{"Address":"1560 SYCAMORE AVENUE, HERCULES, CA 94547","Affiliation":"Rite-Aid","Appointment scheduling instructions":["https://www.coronavirus.cchealth.org/vaccine"],"Availability Info":["Yes: vaccinating 65+","Yes: restricted to county residents","Yes: appointment required"],"County":"Contra Costa County","Has Report":1,"Latest report":"2021-02-06T03:58:38.000Z","Latest report notes":["Feb 05 Moderna. Currently scheduling first and second does appointment, but must meet county requirements."],"Latest report yes?":1,"Latitude":38.009015,"Location Type":"Pharmacy","Longitude":-122.272253,"Name":"RITE AID PHARMACY 05923"},{"Address":"5427 Whittier Blvd, Los Angeles, CA 90022","Affiliation":"None / Unknown / Unimportant","Appointment scheduling instructions":[null],"Availability Info":["No: no vaccine inventory"],"County":"Los Angeles County","Has Report":1,"Latest report":"2021-01-29T06:39:00.000Z","Latest report yes?":0,"Latitude":34.019831,"Location Type":"Pharmacy","Longitude":-118.153382,"Name":"AltaMed Pharmacy 3"},{"Address":"16491 LAKESHORE DRIVE, LAKE ELSINORE, CA 92530","Affiliation":"Rite-Aid","Availability Info":["No: no vaccine inventory"],"County":"Riverside County","Has Report":1,"Latest report":"2021-02-10T05:35:36.000Z","Latest report notes":[null],"Latest report yes?":0,"Latitude":33.688031,"Location Type":"Pharmacy","Longitude":-117.373145,"Name":"RITE AID PHARMACY 06509"},{"Address":"2355 E COLORADO BLVD, PASADENA, CA 91107","Affiliation":"Von's Pharmacy","Availability Info":["No: no vaccine inventory"],"County":"Los Angeles County","Has Report":1,"Latest report":"2021-02-10T05:35:44.000Z","Latest report notes":[null],"Latest report yes?":0,"Latitude":34.147402,"Location Type":"Pharmacy","Longitude":-118.102136,"Name":"VONS PHARMACY #2858"},{"Address":"210  N. Chester Ave, Bakersfield, CA 93308","Affiliation":"None / Unknown / Unimportant","Availability Info":["No: no vaccine inventory"],"County":"Kern County","Has Report":1,"Latest report":"2021-02-04T06:22:46.000Z","Latest report notes":[null],"Latest report yes?":0,"Latitude":35.407548,"Location Type":"Pharmacy","Longitude":-119.020323,"Name":"Omni Family Health (210 North Chester Ave)"},{"Address":"659 E PALOMAR ST, CHULA VISTA, CA 91911","Affiliation":"Ralph's Pharmacy","Appointment scheduling instructions":["https://www.ralphs.com/rx/guest/get-vaccinated"],"Availability Info":["Yes: vaccinating 65+","Yes: appointment required"],"County":"San Diego County","Has Report":1,"Latest report":"2021-02-05T22:48:37.000Z","Latest report notes":["Feb 05 Moderna. ~110-120 appointments per week."],"Latest report yes?":1,"Latitude":32.615672,"Location Type":"Pharmacy","Longitude":-117.024998,"Name":"Ralphs Pharmacy (659 E Palomar St)"},{"Address":"451 W Lambert Rd Ste 208, BREA, CA 92821","Affiliation":"None / Unknown / Unimportant","Appointment scheduling instructions":[null],"Availability Info":["No: no vaccine inventory"],"County":"Orange County","Has Report":1,"Latest report":"2021-01-28T02:46:22.000Z","Latest report yes?":0,"Latitude":33.925096,"Location Type":"Pharmacy","Longitude":-117.901653,"Name":"PharMedQuest Pharmacy Services"},{"Affiliation":"None / Unknown / Unimportant","Appointment scheduling instructions":[null],"Availability Info":["Yes: must be a current patient","Yes: vaccinating 75+"],"County":"Los Angeles County","Has Report":1,"Latest report":"2021-02-05T01:08:48.000Z","Latest report notes":["No change from last report on 1/15/21\nhttps://www.memorialcare.org/coronavirus/covid-vaccine for more information. "],"Latest report yes?":1,"Latitude":33.8083605,"Location Type":"Hospital / Clinic","Longitude":-118.1873236,"Name":"Miller Children's and Women's Hospital – Long Beach"},{"Address":"12626 South St, Cerritos, CA 90703","Affiliation":"None / Unknown / Unimportant","Availability Info":["No: no vaccine inventory"],"County":"Los Angeles County","Has Report":1,"Latest report":"2021-02-04T06:23:44.000Z","Latest report notes":[null],"Latest report yes?":0,"Latitude":33.858185,"Location Type":"Pharmacy","Longitude":-118.062588,"Name":"VM Pharmacy"},{"Address":"334 SOUTH VERMONT AVENUE, LOS ANGELES, CA 90020","Affiliation":"Rite-Aid","Appointment scheduling instructions":[null],"Availability Info":["No: no vaccine inventory"],"County":"Los Angeles County","Has Report":1,"Latest report":"2021-01-28T03:20:14.000Z","Latest report yes?":0,"Latitude":34.06798,"Location Type":"Pharmacy","Longitude":-118.29146,"Name":"RITE AID PHARMACY 05425"},{"Address":"18625 Sherman Way Ste 107, Reseda, CA 91335","Affiliation":"None / Unknown / Unimportant","Availability Info":["No: will never be a vaccination site"],"County":"Los Angeles County","Has Report":1,"Latest report":"2021-02-04T06:22:29.000Z","Latest report notes":[null],"Latest report yes?":0,"Latitude":34.201287,"Location Type":"Pharmacy","Longitude":-118.539357,"Name":"Curerx (18625 Sherman Way Ste 107)"},{"Address":"301 S FAIR OAKS AVE STE 104, PASADENA, CA 91105","Affiliation":"None / Unknown / Unimportant","Availability Info":["No: no vaccine inventory"],"County":"Los Angeles County","Has Report":1,"Latest report":"2021-02-04T06:23:03.000Z","Latest report notes":[null],"Latest report yes?":0,"Latitude":34.140388,"Location Type":"Pharmacy","Longitude":-118.150958,"Name":"Unicare Pharmacy"},{"Address":"17150 Euclid St Ste 222A, Fountain Valley, CA 92708","Affiliation":"None / Unknown / Unimportant","Appointment scheduling instructions":[null],"Availability Info":["No: no vaccine inventory"],"County":"Orange County","Has Report":1,"Latest report":"2021-01-28T03:20:24.000Z","Latest report yes?":0,"Latitude":33.710546,"Location Type":"Pharmacy","Longitude":-117.937,"Name":"Prestige Medical Pharmacy"},{"Address":"505 #b Bear Mountain Blvd, Arvin CA, 93203","Affiliation":"CVS","Availability Info":["No: no vaccine inventory"],"County":"Kern County","Has Report":1,"Latest report":"2021-02-10T05:35:29.000Z","Latest report notes":[null],"Latest report yes?":0,"Latitude":35.2088,"Location Type":"Pharmacy","Longitude":-118.8301,"Name":"CVS Pharmacy® \u0026 Drug Store at 505 #b Bear Mountain Blvd Arvin, CA 93203"},{"Address":"350 PARNASSUS AVE STE 100, SAN FRANCISCO, CA 94117","Affiliation":"None / Unknown / Unimportant","Appointment scheduling instructions":[null],"Availability Info":["No: no vaccine inventory"],"County":"San Francisco","Has Report":1,"Latest report":"2021-01-28T02:46:11.000Z","Latest report yes?":0,"Latitude":37.76418,"Location Type":"Pharmacy","Longitude":-122.456081,"Name":"PARNASSUS HEIGHTS PHARMACY"},